IGRP,PLANT_NAME,SITE_NAME,PLANT_CODE,EMM_REGION,FuelRegion,STATE,LAT,LON,UNIT_ID,ECPT,SCAP,HeatRate,CF,R_CO2,CO2_EMIS,CAP_COST,VAR_COST,ACTIVE,SOURCE_TYPE,OGSM_Region
1083,Cayuga,CAP_GEN_P1001,1001,4,5,IN,39.92,-87.42,1,C4,500,10055,0.59,0.9,4.06,1892.96,7.14,,GEN,1
1086,Cayuga,CAP_GEN_P1001,1001,4,5,IN,39.92,-87.42,2,C4,495,10098,0.53,0.9,4.04,1842.68,7.23,,GEN,1
5397,Energy Center Dover,CAP_GEN_P10030,10030,10,10,DE,39.15,-75.54,COG1,EC,59,8931,0.16,0.9,0.24,159.96,10,,GEN,1
5399,Gilroy Power Plant,CAP_GEN_P10034,10034,21,23,CA,37,-121.53,GEN1,EC,115,9105,0.09,0.9,0.48,161.12,3.7,,GEN,6
1095,Edwardsport,CAP_GEN_P1004,1004,4,5,IN,38.8,-87.24,CT1,IG,174.9,11338,0.71,0.9,1.6,9999,9999,,GEN,1
1096,Edwardsport,CAP_GEN_P1004,1004,4,5,IN,38.8,-87.24,CT2,IG,174.9,11338,0.71,0.9,1.6,9999,9999,,GEN,1
1097,Edwardsport,CAP_GEN_P1004,1004,4,5,IN,38.8,-87.24,ST,IG,245.2,11338,0.71,0.9,2.24,9999,9999,,GEN,1
5401,Logan Generating Pla,CAP_GEN_P10043,10043,10,2,NJ,39.79,-75.4,GEN1,B7,219,12490,0.5,0.9,2.21,558.8,9.07,,GEN,1
1100,Noblesville,CAP_GEN_P1007,1007,4,5,IN,40.09,-85.97,1,EC,264,9633,0.51,0.9,1.18,61.77,2.42,,GEN,1
5422,Pedricktown Cogen Pl,CAP_GEN_P10099,10099,10,2,NJ,39.76,-75.42,GEN1,EC,112.8,9593,0.04,0.9,0.5,139.58,3.59,,GEN,1
5425,John B Rich Memorial,CAP_GEN_P10113,10113,10,3,PA,40.79,-76.19,GEN1,B3,80,14053,0.83,0.9,0.9,348.02,11.43,,GEN,1
1112,F B Culley,CAP_GEN_P1012,1012,4,5,IN,37.91,-87.32,2,C4,90,11765,0.5,0.9,0.85,318.33,11.96,,GEN,1
1113,F B Culley,CAP_GEN_P1012,1012,4,5,IN,37.91,-87.32,3,B5,270,10844,0.61,0.9,2.36,643.83,8.49,,GEN,1
5434,Colver Green Energy,CAP_GEN_P10143,10143,10,3,PA,40.55,-78.8,COLV,B3,110,11293,0.73,0.9,1,388.63,10.81,,GEN,1
5436,Grant Town Power Pla,CAP_GEN_P10151,10151,11,11,WV,39.56,-80.16,GEN1,B3,80,13754,0.89,0.9,0.88,307.17,12.18,,GEN,1
5439,Fresno Cogen Partner,CAP_GEN_P10156,10156,21,23,CA,36.61,-120.1,GEN2,EC,6,10291,9.00E-03,0.9,0.02,9.89,10.07,,GEN,6
5441,Fresno Cogen Partner,CAP_GEN_P10156,10156,21,23,CA,36.61,-120.1,GEN4,EC,52.2,10291,9.00E-03,0.9,0.24,84.07,10.07,,GEN,6
1116,Butler-Warner Genera,CAP_GEN_P1016,1016,14,13,NC,35.09,-78.82,1,EC,20,12999,0.01,0.9,0.12,39.22,2.69,,GEN,1
1119,Butler-Warner Genera,CAP_GEN_P1016,1016,14,13,NC,35.09,-78.82,2,EC,40,12999,0.01,0.9,0.24,39.22,2.69,,GEN,1
1121,Butler-Warner Genera,CAP_GEN_P1016,1016,14,13,NC,35.09,-78.82,6,EC,60,12999,0.01,0.9,0.36,39.22,2.69,,GEN,1
1122,Butler-Warner Genera,CAP_GEN_P1016,1016,14,13,NC,35.09,-78.82,9,EC,65,12999,0.01,0.9,0.39,127.46,2.69,,GEN,1
5445,Carson Cogeneration,CAP_GEN_P10169,10169,22,23,CA,33.87,-118.24,GEN1,EC,49.29,9288,0.03,0.9,0.21,103.01,10.02,,GEN,6
5453,EPCOR_ Castleton Fac,CAP_GEN_P10190,10190,9,2,NY,42.53,-73.74,GEN1,EC,67.7,9452,0.19,0.9,0.29,119.48,4.47,,GEN,1
5454,EPCOR_ Castleton Fac,CAP_GEN_P10190,10190,9,2,NY,42.53,-73.74,GEN2,EC,25,9452,0.19,0.9,0.1,69.46,4.47,,GEN,1
1126,Crawfordsville Power,CAP_GEN_P1024,1024,4,5,IN,40.04,-86.89,4,H1,10.6,18084,0.5,0.9,0.15,41.22,10,,GEN,1
5476,King City Power Plan,CAP_GEN_P10294,10294,21,23,CA,36.22,-121.12,GTG,EC,111,8625,0.08,0.9,0.44,134.1,3.64,,GEN,6
5479,Bellingham Cogenerat,CAP_GEN_P10307,10307,7,1,MA,42.09,-71.48,CT1,EC,204,8565,0.05,0.9,0.81,165.5,2.56,,GEN,1
5480,Bellingham Cogenerat,CAP_GEN_P10307,10307,7,1,MA,42.09,-71.48,ST1,EC,60,8565,0.08,0.9,0.23,97.35,2.56,,GEN,1
5481,Sayreville Cogenerat,CAP_GEN_P10308,10308,10,2,NJ,40.43,-74.34,ST1,EC,292,8253,0.22,0.9,1.12,58.21,5.24,,GEN,1
5489,Marathon Bay Area Co,CAP_GEN_P10342,10342,21,23,CA,38.02,-122.05,TG1,EC,103.5,10285,0.56,0.9,0.49,34.77,7.5,,GEN,6
5490,Foster Wheeler Mt Ca,CAP_GEN_P10343,10343,10,3,PA,40.81,-76.45,TG1,B3,43,15491,0.5,0.9,0.53,125.91,10,,GEN,1
1139,Whitewater Valley,CAP_GEN_P1040,1040,11,5,IN,39.8,-84.89,1,B1,34.7,13425,0.5,0.9,0.37,106.71,10,,GEN,1
1140,Whitewater Valley,CAP_GEN_P1040,1040,11,5,IN,39.8,-84.89,2,B1,65,13279,0.5,0.9,0.69,284.07,12.69,,GEN,1
5619,Brush Generation Fac,CAP_GEN_P10682,10682,24,20,CO,40.24,-103.63,GT1,EC,25,11014,0.04,0.9,0.12,61.19,4.03,,GEN,5
5621,Brush Generation Fac,CAP_GEN_P10682,10682,24,20,CO,40.24,-103.63,GT3,EC,242,11014,0.04,0.9,1.24,78.32,4.03,,GEN,5
5631,Selkirk Cogen,CAP_GEN_P10725,10725,9,2,NY,42.57,-73.85,GEN1,EC,93.5,9732,0.12,0.9,0.42,52.7,13.56,,GEN,1
5632,Selkirk Cogen,CAP_GEN_P10725,10725,9,2,NY,42.57,-73.85,GEN5,EC,26.3,9732,0.12,0.9,0.11,94.1,13.56,,GEN,1
5633,Masspower,CAP_GEN_P10726,10726,7,1,MA,42.15,-72.52,GEN1,EC,245,8780,0.11,0.9,1,323.5,2.69,,GEN,1
1162,Prairie Creek,CAP_GEN_P1073,1073,3,8,IA,41.94,-91.63,1,C1,4.2,8800,1,0.9,0.02,19,10,,GEN,3
1164,Prairie Creek,CAP_GEN_P1073,1073,3,8,IA,41.94,-91.63,3,C1,29.3,12758,0.5,0.9,0.3,93.51,10,,GEN,3
5642,Morgantown Energy Fa,CAP_GEN_P10743,10743,11,11,WV,39.64,-79.96,GEN1,H4,50,18084,0.5,0.9,0.73,204.7,12.73,,GEN,1
5644,Midland Cogeneration,CAP_GEN_P10745,10745,5,5,MI,43.58,-84.22,BP15,EC,1859.4,9518,0.36,0.9,8.23,15.18,1.86,,GEN,1
5646,Camden Plant Holding,CAP_GEN_P10751,10751,10,2,NJ,39.91,-75.11,GEN1,EC,145,9414,0.05,0.9,0.63,163.77,3.19,,GEN,1
5649,Rifle Generating Sta,CAP_GEN_P10755,10755,24,20,CO,39.51,-107.73,GT2,EC,73,9393,0.01,0.9,0.31,30.51,4.66,,GEN,5
5651,Las Vegas Generating,CAP_GEN_P10761,10761,25,20,NV,36.23,-115.12,GEN1,EC,282,8750,0.12,0.9,1.14,9999,9999,,GEN,5
5666,Colstrip Energy LP,CAP_GEN_P10784,10784,23,19,MT,45.97,-106.65,GEN1,B3,38,13868,0.82,0.9,0.42,114.49,10,,GEN,7
86,Holcomb,CAP_GEN_P108,108,18,9,KS,37.93,-100.97,1,B7,359.1,10879,0.5,0.9,3.15,785.08,7.72,,GEN,3
5674,Kenilworth Energy Fa,CAP_GEN_P10805,10805,10,2,NJ,40.67,-74.27,GEN1,EC,24.5,10790,0.64,0.9,0.12,72.94,6.2,,GEN,1
5686,Ada Cogeneration LP,CAP_GEN_P10819,10819,5,5,MI,42.96,-85.49,GEN1,EC,30,10688,0.71,0.9,0.14,80.75,6.3,,GEN,1
1174,Walter Scott Jr Ener,CAP_GEN_P1082,1082,3,8,IA,41.18,-95.84,3,B7,705.18,9925,0.57,0.9,5.66,1154.5,6.55,,GEN,3
117,Cross,CAP_GEN_P130,130,14,13,SC,33.37,-80.11,4,C7,615,9977,0.57,0.9,4.96,1077.86,6.71,,GEN,1
1478,E W Brown,CAP_GEN_P1355,1355,16,16,KY,37.78,-84.71,3,C7,412,11792,0.5,0.9,3.92,850.35,7.48,,GEN,1
1483,Ghent,CAP_GEN_P1356,1356,16,16,KY,38.75,-85.03,1,C7,474,10778,0.67,0.9,4.13,929.22,7.2,,GEN,1
1485,Ghent,CAP_GEN_P1356,1356,16,16,KY,38.75,-85.03,2,C7,495,10792,0.64,0.9,4.32,917.36,7.24,,GEN,1
1488,Ghent,CAP_GEN_P1356,1356,16,16,KY,38.75,-85.03,3,C7,485,11037,0.59,0.9,4.32,916.81,7.24,,GEN,1
1490,Ghent,CAP_GEN_P1356,1356,16,16,KY,38.75,-85.03,4,C7,465,10974,0.63,0.9,4.12,862.89,7.44,,GEN,1
118,Seminole (FL),CAP_GEN_P136,136,2,15,FL,29.73,-81.63,1,C7,626,10049,0.6,0.9,5.08,1050.21,6.96,,GEN,2
119,Seminole (FL),CAP_GEN_P136,136,2,15,FL,29.73,-81.63,2,C7,634,10015,0.65,0.9,5.13,1157.82,6.66,,GEN,2
120,Seminole (FL),CAP_GEN_P136,136,2,15,FL,29.73,-81.63,CT2,EC,1099.4,6431,0.87,0.9,3.29,1012.65,10,,GEN,2
1502,Cane Run,CAP_GEN_P1363,1363,16,16,KY,38.18,-85.88,7B,EC,663,7050,0.77,0.9,2.17,704.1,10,,GEN,1
1503,Mill Creek (KY),CAP_GEN_P1364,1364,16,16,KY,38.05,-85.91,1,C4,300,10756,0.62,0.9,2.6,649.45,8.45,,GEN,1
1505,Mill Creek (KY),CAP_GEN_P1364,1364,16,16,KY,38.05,-85.91,2,C4,297,10782,0.54,0.9,2.59,680.5,8.27,,GEN,1
1507,Mill Creek (KY),CAP_GEN_P1364,1364,16,16,KY,38.05,-85.91,3,C7,391,10490,0.62,0.9,3.31,796.81,7.7,,GEN,1
1509,Mill Creek (KY),CAP_GEN_P1364,1364,16,16,KY,38.05,-85.91,4,C7,477,10394,0.65,0.9,4.01,910.98,7.26,,GEN,1
1523,Paradise,CAP_GEN_P1378,1378,16,16,KY,37.26,-86.97,CTG2,EC,1100,7050,0.6,0.9,3.6,1013.04,10,,GEN,1
1524,Shawnee,CAP_GEN_P1379,1379,16,16,KY,37.15,-88.77,1,B7,134,11452,0.51,0.9,1.24,424.95,10.34,,GEN,1
1528,Shawnee,CAP_GEN_P1379,1379,16,16,KY,37.15,-88.77,2,B7,134,11478,0.5,0.9,1.24,424.02,10.36,,GEN,1
1531,Shawnee,CAP_GEN_P1379,1379,16,16,KY,37.15,-88.77,3,B7,134,11454,0.52,0.9,1.24,425.66,10.34,,GEN,1
1692,Kendall Square Stati,CAP_GEN_P1595,1595,7,1,MA,42.36,-71.07,GEN4,EC,183.1,10007,0.64,0.9,0.85,191.2,2.92,,GEN,1
146,Apache Station,CAP_GEN_P160,160,20,21,AZ,32.06,-109.89,ST3,C4,175,11324,0.58,0.9,1.6,514.09,9.43,,GEN,5
150,GREC,CAP_GEN_P165,165,17,18,OK,36.19,-95.28,2,B7,492,14418,0.5,0.9,5.73,1043.43,6.85,,GEN,3
152,GREC,CAP_GEN_P165,165,17,18,OK,36.19,-95.28,3CT,EC,477,7050,0.51,0.9,1.56,550.32,10,,GEN,3
1727,Potter Station 2,CAP_GEN_P1660,1660,7,1,MA,42.23,-70.96,CC2,EC,62.59,9518,0,0.9,0.27,139.89,11.58,,GEN,1
1728,Potter Station 2,CAP_GEN_P1660,1660,7,1,MA,42.23,-70.96,CC3,EC,15.48,9633,5.00E-03,0.9,0.06,33.76,11.58,,GEN,1
1736,Cleary Flood Hybrid,CAP_GEN_P1682,1682,7,1,MA,41.86,-71.1,9A,EC,17.98,11179,0.01,0.9,0.09,33.21,16.51,,GEN,1
1738,Cleary Flood Hybrid,CAP_GEN_P1682,1682,7,1,MA,41.86,-71.1,CA9,EC,84.98,11179,0.01,0.9,0.44,143.92,16.51,,GEN,1
1748,Dan E Karn,CAP_GEN_P1702,1702,5,5,MI,43.64,-83.84,1A,B7,127.5,11074,1,0.9,1.14,641,8.5,,GEN,1
1751,Dan E Karn,CAP_GEN_P1702,1702,5,5,MI,43.64,-83.84,1B,B7,127.5,10810,0.5,0.9,1.11,7873.22,9999,,GEN,1
1754,Dan E Karn,CAP_GEN_P1702,1702,5,5,MI,43.64,-83.84,2A,B7,117.1,10933,1,0.9,1.03,619.5,8.64,,GEN,1
1757,Dan E Karn,CAP_GEN_P1702,1702,5,5,MI,43.64,-83.84,2B,B7,117.1,11140,0.5,0.9,1.05,7873.22,9999,,GEN,1
1766,J H Campbell,CAP_GEN_P1710,1710,5,5,MI,42.91,-86.2,1,B7,260,10355,0.54,0.9,2.17,617.02,8.65,,GEN,1
1768,J H Campbell,CAP_GEN_P1710,1710,5,5,MI,42.91,-86.2,2,B7,328,10435,0.5,0.9,2.76,744.51,7.94,,GEN,1
1771,J H Campbell,CAP_GEN_P1710,1710,5,5,MI,42.91,-86.2,3,B7,841.39,10236,0.72,0.9,6.96,1477.48,7.17,,GEN,1
1817,Monroe (MI),CAP_GEN_P1733,1733,5,5,MI,41.89,-83.34,1,C7,758,10317,0.55,0.9,6.32,1097.79,6.71,,GEN,1
1819,Monroe (MI),CAP_GEN_P1733,1733,5,5,MI,41.89,-83.34,2,C7,773,10284,0.52,0.9,6.42,1441.89,7.47,,GEN,1
1821,Monroe (MI),CAP_GEN_P1733,1733,5,5,MI,41.89,-83.34,3,C7,773,10385,0.58,0.9,6.49,1439.62,7.47,,GEN,1
175,Thomas Fitzhugh,CAP_GEN_P201,201,17,18,AR,35.46,-93.8,1,EC,162,9074,0.18,0.9,0.68,111.14,3.1,,GEN,3
2114,L L Wilkins,CAP_GEN_P2059,2059,6,17,MS,34.18,-90.56,6,EC,49.5,16556,0,0.9,0.38,9999,9999,,GEN,2
2121,Yazoo,CAP_GEN_P2067,2067,6,17,MS,32.84,-90.42,2,EC,18.6,23523,1.00E-03,0.9,0.2,9999,9999,,GEN,2
2122,Yazoo,CAP_GEN_P2067,2067,6,17,MS,32.84,-90.42,GT1,EC,14.7,23523,1.00E-03,0.9,0.16,9999,9999,,GEN,2
2124,Moselle,CAP_GEN_P2070,2070,6,17,MS,31.52,-89.3,2,EC,118,8412,0.5,0.9,0.46,100.58,3.38,,GEN,2
2128,Moselle,CAP_GEN_P2070,2070,6,17,MS,31.52,-89.3,GTG1,EC,150,8412,0.47,0.9,0.58,127.85,3.38,,GEN,2
2132,Hawthorn,CAP_GEN_P2079,2079,18,9,MO,39.13,-94.47,5,B7,552.2,10407,0.54,0.9,4.64,7873.22,9999,,GEN,3
2134,Hawthorn,CAP_GEN_P2079,2079,18,9,MO,39.13,-94.47,6,EC,120.7,9329,0.06,0.9,0.52,190.01,2.69,,GEN,3
2136,Hawthorn,CAP_GEN_P2079,2079,18,9,MO,39.13,-94.47,9,EC,103.8,9329,0.06,0.9,0.45,134.13,2.69,,GEN,3
2154,Labadie,CAP_GEN_P2103,2103,4,9,MO,38.56,-90.83,1,C1,593,10349,0.77,0.9,4.96,1052.63,6.83,,GEN,3
2155,Labadie,CAP_GEN_P2103,2103,4,9,MO,38.56,-90.83,2,C1,593,10417,0.76,0.9,4.99,1079.62,6.8,,GEN,3
2156,Labadie,CAP_GEN_P2103,2103,4,9,MO,38.56,-90.83,3,C1,593,10388,0.7,0.9,4.98,1064.08,6.79,,GEN,3
2157,Labadie,CAP_GEN_P2103,2103,4,9,MO,38.56,-90.83,4,C1,593,10389,0.75,0.9,4.98,1079.15,6.76,,GEN,3
2159,Meramec,CAP_GEN_P2104,2104,4,9,MO,38.4,-90.33,3,C1,220,12367,0.5,0.9,2.2,633.49,8.55,,GEN,3
2160,Meramec,CAP_GEN_P2104,2104,4,9,MO,38.4,-90.33,4,C1,320,12291,0.5,0.9,3.18,777.87,7.8,,GEN,3
2164,Sioux,CAP_GEN_P2107,2107,4,9,MO,38.91,-90.29,1,C4,487,11532,0.5,0.9,4.54,897.86,7.3,,GEN,3
2166,Sioux,CAP_GEN_P2107,2107,4,9,MO,38.91,-90.29,2,C4,487,11664,0.5,0.9,4.59,897.8,7.3,,GEN,3
2252,New Madrid,CAP_GEN_P2167,2167,4,9,MO,36.51,-89.56,1,C1,575,9936,0.62,0.9,4.62,1072.9,6.77,,GEN,3
2253,New Madrid,CAP_GEN_P2167,2167,4,9,MO,36.51,-89.56,2,C1,571,9880,0.7,0.9,4.56,1051.02,6.93,,GEN,3
2428,Schiller,CAP_GEN_P2367,2367,7,1,NH,43.09,-70.78,6,C1,47.9,18084,0.5,0.9,0.7,136.71,10,,GEN,1
2444,Gilbert,CAP_GEN_P2393,2393,10,2,NJ,40.56,-75.16,4,EC,302.5,11977,7.00E-03,0.9,1.68,76.74,2.3,,GEN,1
2447,Bergen Generating St,CAP_GEN_P2398,2398,10,2,NJ,40.83,-74.02,1101,EC,1245,7727,0.16,0.9,4.47,115.09,2.19,,GEN,1
2460,PSEG Linden Generati,CAP_GEN_P2406,2406,10,2,NJ,40.62,-74.2,1001,EC,1300,7436,0.3,0.9,4.49,284.21,2.15,,GEN,1
2473,PSEG Sewaren Generat,CAP_GEN_P2411,2411,10,2,NJ,40.55,-74.24,702,EC,538,7050,0.74,0.9,1.76,602.66,10,,GEN,1
2480,Four Corners,CAP_GEN_P2442,2442,20,21,NM,36.69,-108.48,4,B5,770,9862,0.57,0.9,6.14,1162.67,6.55,,GEN,5
2485,Four Corners,CAP_GEN_P2442,2442,20,21,NM,36.69,-108.48,5,B5,770,9786,0.56,0.9,6.09,1460.89,7.42,,GEN,5
2496,San Juan,CAP_GEN_P2451,2451,20,21,NM,36.8,-108.43,1,B3,340,11426,0.64,0.9,3.14,773.94,8,,GEN,5
2509,San Juan,CAP_GEN_P2451,2451,20,21,NM,36.8,-108.43,4,B3,506.99,11198,0.68,0.9,4.59,968.08,7.08,,GEN,5
2553,Ravenswood,CAP_GEN_P2500,2500,8,2,NY,40.75,-73.94,4,EC,240.1,7419,0.65,0.9,0.82,198.74,2.95,,GEN,1
2584,Bethlehem Energy Cen,CAP_GEN_P2539,2539,9,2,NY,42.59,-73.76,7,EC,815.5,7050,0.67,0.9,2.67,165.12,2.29,,GEN,1
2597,Dunkirk Generating P,CAP_GEN_P2554,2554,9,2,NY,42.49,-79.34,1,B7,75,13888,0.5,0.9,0.84,335.23,11.65,,GEN,1
2603,Dunkirk Generating P,CAP_GEN_P2554,2554,9,2,NY,42.49,-79.34,3,B7,185,11140,0.5,0.9,1.66,7873.22,9999,,GEN,1
2606,Dunkirk Generating P,CAP_GEN_P2554,2554,9,2,NY,42.49,-79.34,ST4,B7,185,11140,0.5,0.9,1.66,7873.22,9999,,GEN,1
32,E C Gaston,CAP_GEN_P26,26,15,17,AL,33.24,-86.45,5,B5,832,10442,0.5,0.9,7.02,1557.26,7.22,,GEN,2
225,Dynegy Moss Landing,CAP_GEN_P260,260,21,23,CA,36.8,-121.78,CT1B,EC,1020,7050,0.49,0.9,3.34,156.47,2.09,,GEN,6
2712,Asheville,CAP_GEN_P2706,2706,14,13,NC,35.47,-82.54,CT5,EC,306,7050,0.73,0.9,1,390.88,10,,GEN,1
2814,R M Heskett,CAP_GEN_P2790,2790,3,7,ND,46.86,-100.88,1,C1,29.5,13919,0.5,0.9,0.33,94.01,10,,GEN,7
2815,R M Heskett,CAP_GEN_P2790,2790,3,7,ND,46.86,-100.88,2,C4,74.8,13265,0.61,0.9,0.8,326.67,11.8,,GEN,7
2822,Leland Olds,CAP_GEN_P2817,2817,19,7,ND,47.28,-101.32,1,C4,221,11985,0.55,0.9,2.14,1234.93,8.65,,GEN,7
2824,Leland Olds,CAP_GEN_P2817,2817,19,7,ND,47.28,-101.32,2,C4,445,11800,0.55,0.9,4.24,1842.38,7.21,,GEN,7
2828,Milton R Young,CAP_GEN_P2823,2823,3,7,ND,47.06,-101.21,1,C4,237,11787,0.8,0.9,2.25,653.81,8.43,,GEN,7
2831,Milton R Young,CAP_GEN_P2823,2823,3,7,ND,47.06,-101.21,2,C4,447,11534,0.79,0.9,4.17,906.02,7.28,,GEN,7
2834,Cardinal,CAP_GEN_P2828,2828,11,4,OH,40.25,-80.64,1,C7,585,9908,0.64,0.9,4.68,998.17,6.98,,GEN,1
2836,Cardinal,CAP_GEN_P2828,2828,11,4,OH,40.25,-80.64,2,C7,585,9872,0.63,0.9,4.67,1006.94,6.96,,GEN,1
2838,Cardinal,CAP_GEN_P2828,2828,11,4,OH,40.25,-80.64,3,C7,620,10087,0.59,0.9,5.05,1073.14,6.77,,GEN,1
2852,Miami Fort,CAP_GEN_P2832,2832,11,4,OH,39.11,-84.8,7,C7,510,10322,0.7,0.9,4.25,954.25,7.12,,GEN,1
2854,Miami Fort,CAP_GEN_P2832,2832,11,4,OH,39.11,-84.8,8,C7,510,10387,0.75,0.9,4.28,905.44,7.28,,GEN,1
2860,Avon Lake,CAP_GEN_P2836,2836,11,4,OH,41.5,-82.05,9,C1,627,10928,0.5,0.9,5.54,1018.02,6.92,,GEN,1
2908,W H Sammis,CAP_GEN_P2866,2866,11,4,OH,40.53,-80.63,5,C4,290,11945,0.5,0.9,2.8,680.02,8.28,,GEN,1
2910,W H Sammis,CAP_GEN_P2866,2866,11,4,OH,40.53,-80.63,6,H7,600,11221,0.5,0.9,5.44,1045.9,6.84,,GEN,1
2913,W H Sammis,CAP_GEN_P2866,2866,11,4,OH,40.53,-80.63,7,H7,600,11279,0.5,0.9,5.47,1037.21,6.87,,GEN,1
2923,Kyger Creek,CAP_GEN_P2876,2876,11,4,OH,38.91,-82.12,1,C7,194,10797,0.64,0.9,1.69,504.22,9.38,,GEN,1
2925,Kyger Creek,CAP_GEN_P2876,2876,11,4,OH,38.91,-82.12,2,C7,192.2,10759,0.61,0.9,1.67,508.83,9.34,,GEN,1
2927,Kyger Creek,CAP_GEN_P2876,2876,11,4,OH,38.91,-82.12,3,C7,192.2,10760,0.6,0.9,1.67,518.87,9.39,,GEN,1
6,Barry,CAP_GEN_P3,3,15,17,AL,31,-88.01,5,C7,756.5,10010,0.5,0.9,6.12,1447.86,7.45,,GEN,2
8,Barry,CAP_GEN_P3,3,15,17,AL,31,-88.01,A2C1,EC,1136.2,7060,0.81,0.9,3.73,148.56,2.14,,GEN,2
9,Barry,CAP_GEN_P3,3,15,17,AL,31,-88.01,A3ST,EC,685,6431,0.87,0.9,2.04,721.23,10,,GEN,2
3029,Anadarko Plant,CAP_GEN_P3006,3006,17,18,OK,35.08,-98.23,4,EC,282,8608,0.21,0.9,1.12,228.59,3.67,,GEN,3
3080,Brunot Island,CAP_GEN_P3096,3096,11,3,PA,40.46,-80.04,2A,EC,243.5,10855,0.03,0.9,1.22,47.05,2.66,,GEN,1
3100,Conemaugh,CAP_GEN_P3118,3118,10,3,PA,40.38,-79.06,1,C7,849.99,9792,0.61,0.9,6.73,1547.99,7.24,,GEN,1
3105,Conemaugh,CAP_GEN_P3118,3118,10,3,PA,40.38,-79.06,2,C7,849.98,9722,0.68,0.9,6.68,1540.95,7.26,,GEN,1
3113,Homer City Generatin,CAP_GEN_P3122,3122,11,3,PA,40.51,-79.19,1,CX,626.09,10780,0.5,0.9,5.45,1042.99,6.85,,GEN,1
3117,Homer City Generatin,CAP_GEN_P3122,3122,11,3,PA,40.51,-79.19,2,CX,613.29,10866,0.5,0.9,5.39,2100.21,6.83,,GEN,1
3121,Homer City Generatin,CAP_GEN_P3122,3122,11,3,PA,40.51,-79.19,3,C7,648.89,10493,0.5,0.9,5.5,1070.15,6.78,,GEN,1
3124,Seward (PA),CAP_GEN_P3130,3130,10,3,PA,40.4,-79.03,FB1,B3,521,11115,0.52,0.9,4.68,920.18,7.23,,GEN,1
3128,Keystone,CAP_GEN_P3136,3136,10,3,PA,40.66,-79.34,1,C7,849.99,9925,0.68,0.9,6.82,1531.47,7.27,,GEN,1
3138,Keystone,CAP_GEN_P3136,3136,10,3,PA,40.66,-79.34,2,C7,849.99,9912,0.65,0.9,6.81,1546.89,7.24,,GEN,1
3152,Brunner Island,CAP_GEN_P3140,3140,10,3,PA,40.09,-76.69,1,B3,306,11909,0.5,0.9,2.94,660.66,8.39,,GEN,1
3154,Brunner Island,CAP_GEN_P3140,3140,10,3,PA,40.09,-76.69,2,C4,363,11327,0.5,0.9,3.32,736.29,7.98,,GEN,1
3156,Brunner Island,CAP_GEN_P3140,3140,10,3,PA,40.09,-76.69,3,C4,742,10850,0.5,0.9,6.51,1166.72,6.54,,GEN,1
3168,TalenEnergy Montour,CAP_GEN_P3149,3149,10,3,PA,41.07,-76.66,1,C7,752,11140,0.5,0.9,6.77,7873.22,9999,,GEN,1
3172,TalenEnergy Montour,CAP_GEN_P3149,3149,10,3,PA,41.07,-76.66,2,C7,752,10679,0.5,0.9,6.49,1129.2,6.57,,GEN,1
6186,Sithe Independence S,CAP_GEN_P54547,54547,9,2,NY,43.49,-76.45,1,EC,980.2,7380,0.37,0.9,3.36,142.95,2.16,,GEN,1
6197,Saranac Facility,CAP_GEN_P54574,54574,9,2,NY,44.71,-73.45,GEN2,EC,239.3,8713,0.02,0.9,0.97,114.68,2.6,,GEN,1
6201,Tanner Street Genera,CAP_GEN_P54586,54586,7,1,MA,42.63,-71.31,TRENT,EC,75,9027,0.03,0.9,0.31,127.21,4.22,,GEN,1
6202,Massena Energy Facil,CAP_GEN_P54592,54592,9,2,NY,44.95,-74.89,GEN1,EC,46,8804,7.00E-03,0.9,0.18,90.45,4.32,,GEN,1
6203,Massena Energy Facil,CAP_GEN_P54592,54592,9,2,NY,44.95,-74.89,GEN2,EC,35,8804,7.00E-03,0.9,0.14,68.82,4.32,,GEN,1
6205,Batavia Power Plant,CAP_GEN_P54593,54593,9,2,NY,42.98,-78.15,GEN1,EC,48.8,9476,0.03,0.9,0.21,106.65,5.18,,GEN,1
6210,St Nicholas Cogen Pr,CAP_GEN_P54634,54634,10,3,PA,40.82,-76.17,SNCP,B3,86,15737,0.87,0.9,1.09,356.05,11.3,,GEN,1
6212,NAEA Lakewood LLC,CAP_GEN_P54640,54640,10,2,NJ,40.06,-74.16,GEN1,EC,247.9,8136,0.12,0.9,0.93,108.49,2.6,,GEN,1
6228,Oyster Creek Unit VI,CAP_GEN_P54676,54676,1,18,TX,28.98,-95.34,G81,EC,379,10368,0.7,0.9,1.82,43.65,4.54,,GEN,2
6241,Yuma Cogeneration As,CAP_GEN_P54694,54694,20,21,AZ,32.72,-114.65,GEN1,EC,52.2,9756,0.11,0.9,0.23,96.69,4.98,,GEN,5
6258,Goal Line LP,CAP_GEN_P54749,54749,22,23,CA,33.11,-117.1,STG,EC,49.4,9239,0.04,0.9,0.21,25.8,10.2,,GEN,6
6266,Hermiston Generating,CAP_GEN_P54761,54761,23,22,OR,45.8,-119.37,GEN2,EC,464,7505,0.67,0.9,1.62,97.07,5.71,,GEN,6
6276,Milford Power LP,CAP_GEN_P54805,54805,7,1,MA,42.12,-71.51,GT-1,EC,204.8,8664,0.13,0.9,0.82,178.35,3.23,,GEN,1
6280,Johnson County,CAP_GEN_P54817,54817,1,18,TX,32.39,-97.4,GT-1,EC,163,8140,0.27,0.9,0.61,207.07,2.61,,GEN,2
6281,Johnson County,CAP_GEN_P54817,54817,1,18,TX,32.39,-97.4,ST-1,EC,104,8140,0.27,0.9,0.39,132.11,2.61,,GEN,2
6282,Brandywine Power Fac,CAP_GEN_P54832,54832,10,10,MD,38.66,-76.86,1,EC,230,8496,0.34,0.9,0.9,109.55,2.72,,GEN,1
6854,Tracy Combined Cycle,CAP_GEN_P55933,55933,21,23,CA,37.71,-121.49,TCC1,EC,320.1,8194,0.28,0.9,1.22,187.47,2.44,,GEN,6
6859,Warren County,CAP_GEN_P55939,55939,13,12,VA,38.97,-78.17,CT01,EC,1472.2,7050,0.65,0.9,4.82,1236.27,10,,GEN,1
6865,Wansley Combined Cyc,CAP_GEN_P55965,55965,15,14,GA,33.4,-85.03,ST7,EC,1184.8,7050,0.8,0.9,3.88,178.5,2,,GEN,1
6869,Cosumnes,CAP_GEN_P55970,55970,21,23,CA,38.33,-121.12,2,EC,545,7050,0.71,0.9,1.78,147.59,2.15,,GEN,6
6872,Hunterstown Power Pl,CAP_GEN_P55976,55976,10,3,PA,39.87,-77.16,101,EC,810,7087,0.8,0.9,2.67,155.93,2.27,,GEN,1
6873,Bluffview,CAP_GEN_P55977,55977,24,21,NM,36.71,-108.21,STG1,EC,58,7837,0.69,0.9,0.21,62.54,4.46,,GEN,5
6878,Palomar Energy,CAP_GEN_P55985,55985,22,23,CA,33.12,-117.11,CTG1,EC,581.4,7117,0.38,0.9,1.92,153.92,2.02,,GEN,6
6883,Ashtabula,CAP_GEN_P55990,55990,11,4,OH,41.89,-80.76,3,EC,23.4,18274,0.77,0.9,0.19,9999,9999,,GEN,1
72,Lowman Energy Center,CAP_GEN_P56,56,15,17,AL,31.48,-87.91,LEC2,EC,658.9,6431,0.87,0.9,1.97,700.88,10,,GEN,2
6905,Donald Von Raesfeld,CAP_GEN_P56026,56026,21,23,CA,37.37,-121.95,STG,EC,147.8,8430,0.52,0.9,0.57,85.01,3.24,,GEN,6
6906,Fox Energy Center,CAP_GEN_P56031,56031,3,6,WI,44.32,-88.2,CTG1,EC,574.1,7050,0.74,0.9,1.88,147.2,2.04,,GEN,1
6913,Malburg,CAP_GEN_P56041,56041,22,23,CA,33.99,-118.22,M3,EC,139,8253,0.5,0.9,0.53,88.72,3.28,,GEN,6
6916,Magnolia Power Proje,CAP_GEN_P56046,56046,22,23,CA,34.17,-118.31,1,EC,301,7399,0.52,0.9,1.03,185.73,2.58,,GEN,6
6917,CPV Towantic Energy,CAP_GEN_P56047,56047,7,1,CT,41.48,-73.12,STG,EC,789.1,7050,0.76,0.9,2.58,799.74,10,,GEN,1
6930,Elm Road Generating,CAP_GEN_P56068,56068,3,6,WI,42.84,-87.83,1,B5,636.29,9537,0.7,0.9,4.9,1051.81,6.82,,GEN,1
6933,Elm Road Generating,CAP_GEN_P56068,56068,3,6,WI,42.84,-87.83,2,B5,632.79,9473,0.68,0.9,4.84,1039.92,6.86,,GEN,1
6942,Walnut Energy Center,CAP_GEN_P56078,56078,21,23,CA,37.48,-120.89,2,EC,269,7822,0.49,0.9,0.97,109.23,2.56,,GEN,6
6952,Currant Creek,CAP_GEN_P56102,56102,25,20,UT,39.82,-111.89,CT1B,EC,524,7480,0.49,0.9,1.82,127.37,2.11,,GEN,5
6953,Mankato Energy Cente,CAP_GEN_P56104,56104,3,7,MN,44.19,-94,CTG1,EC,187,7459,0.38,0.9,0.64,264.53,10,,GEN,3
6954,Mankato Energy Cente,CAP_GEN_P56104,56104,3,7,MN,44.19,-94,CTG2,EC,167,7459,0.38,0.9,0.57,184.83,2.58,,GEN,3
6955,Mankato Energy Cente,CAP_GEN_P56104,56104,3,7,MN,44.19,-94,STG1,EC,300,7459,0.38,0.9,1.04,161.72,2.58,,GEN,3
6984,McIntosh Combined Cy,CAP_GEN_P56150,56150,15,14,GA,32.34,-81.18,11ST,EC,590,7050,0.74,0.9,1.93,224.35,1.93,,GEN,1
6985,McIntosh Combined Cy,CAP_GEN_P56150,56150,15,14,GA,32.34,-81.18,C11B,EC,725.6,7050,0.74,0.9,2.38,162.37,1.93,,GEN,1
6990,Faribault Energy Par,CAP_GEN_P56164,56164,3,7,MN,44.33,-93.29,EU01,EC,261,7410,0.28,0.9,0.89,186.61,2.72,,GEN,3
7000,Nebo Power Station,CAP_GEN_P56177,56177,25,20,UT,40.06,-111.72,GT1,EC,130,8622,0.37,0.9,0.52,112.99,3.4,,GEN,5
7004,Pinelawn Power LLC,CAP_GEN_P56188,56188,8,2,NY,40.73,-73.38,CTG,EC,47,8789,0.17,0.9,0.19,101.57,4.18,,GEN,1
7005,Pinelawn Power LLC,CAP_GEN_P56188,56188,8,2,NY,40.73,-73.38,STG,EC,27.5,8789,0.17,0.9,0.11,60.51,4.18,,GEN,1
7009,500MW CC,CAP_GEN_P56196,56196,8,2,NY,40.78,-73.9,CA01,EC,168.7,7588,0.52,0.9,0.59,166.87,2.22,,GEN,1
7010,500MW CC,CAP_GEN_P56196,56196,8,2,NY,40.78,-73.9,CT01,EC,306.6,7588,0.52,0.9,1.08,150.38,2.22,,GEN,1
7031,TS Power Plant,CAP_GEN_P56224,56224,25,20,NV,40.74,-116.53,1,B7,218.4,10430,0.55,0.9,1.84,299.5,10,,GEN,5
7034,Port Westward,CAP_GEN_P56227,56227,23,22,OR,46.17,-123.17,2,EC,392.2,7050,0.73,0.9,1.28,148.71,2.37,,GEN,6
7037,Caithness Long Islan,CAP_GEN_P56234,56234,8,2,NY,40.81,-72.94,CT01,EC,187.7,7437,0.77,0.9,0.64,196.17,2.63,,GEN,1
7038,Caithness Long Islan,CAP_GEN_P56234,56234,8,2,NY,40.81,-72.94,ST01,EC,129.6,7437,0.77,0.9,0.44,158.09,2.63,,GEN,1
7039,Lake Side Power Plan,CAP_GEN_P56237,56237,25,20,UT,40.33,-111.75,CT01,EC,1176,7382,0.48,0.9,4.03,151.54,2.04,,GEN,5
7053,Empire Generating Co,CAP_GEN_P56259,56259,9,2,NY,42.62,-73.75,CT11,EC,310,7410,0.63,0.9,1.06,141.16,2.03,,GEN,1
7054,Empire Generating Co,CAP_GEN_P56259,56259,9,2,NY,42.62,-73.75,ST13,EC,270,7410,0.63,0.9,0.93,245.9,2.03,,GEN,1
7079,Roseville Energy Par,CAP_GEN_P56298,56298,21,23,CA,38.79,-121.38,3,EC,151,8465,0.2,0.9,0.59,111.57,3.38,,GEN,6
7089,Trigen St. Louis,CAP_GEN_P56309,56309,4,9,MO,38.63,-90.18,CT-1,EC,10,13098,0,0.9,0.06,9999,9999,,GEN,3
7091,Trigen St. Louis,CAP_GEN_P56309,56309,4,9,MO,38.63,-90.18,ST-3,EC,18,10852,0,0.9,0.09,9999,9999,,GEN,3
7096,Wygen 2,CAP_GEN_P56319,56319,24,19,WY,44.29,-105.38,1,B7,90,11997,0.91,0.9,0.87,217.92,10,,GEN,5
7122,Quail Run Energy Cen,CAP_GEN_P56349,56349,1,18,TX,31.84,-102.31,CT1B,EC,472.2,8590,0.28,0.9,1.88,97.73,2.68,,GEN,4
7123,Colorado Bend Energy,CAP_GEN_P56350,56350,1,18,TX,29.28,-96.06,CT1A,EC,546,8498,0.46,0.9,2.15,99.15,2.63,,GEN,2
7126,Clearwater Power Pla,CAP_GEN_P56356,56356,22,23,CA,33.89,-117.6,CT1,EC,28,7444,0.05,0.9,0.09,75.92,6.36,,GEN,6
569,Stanton Energy Cente,CAP_GEN_P564,564,2,15,FL,28.48,-81.16,1,C4,454.99,10696,0.52,0.9,3.93,889.79,7.34,,GEN,2
572,Stanton Energy Cente,CAP_GEN_P564,564,2,15,FL,28.48,-81.16,2,C7,466.99,10453,0.62,0.9,3.94,868.23,7.42,,GEN,2
574,Stanton Energy Cente,CAP_GEN_P564,564,2,15,FL,28.48,-81.16,B,EC,295,7293,0.62,0.9,1,148.82,2.6,,GEN,2
7156,Treasure Coast Energ,CAP_GEN_P56400,56400,2,15,FL,27.38,-80.37,CT1,EC,158.8,7206,0.62,0.9,0.53,179.53,2.52,,GEN,2
7157,Treasure Coast Energ,CAP_GEN_P56400,56400,2,15,FL,27.38,-80.37,ST1,EC,159.2,7206,0.62,0.9,0.53,179.53,2.52,,GEN,2
7161,West County Energy C,CAP_GEN_P56407,56407,2,15,FL,26.69,-80.37,1ST,EC,3777,7050,0.6,0.9,12.39,445.47,1.9,,GEN,2
7199,Plum Point Energy St,CAP_GEN_P56456,56456,6,18,AR,35.66,-89.94,STG1,B7,679.98,9805,0.67,0.9,5.39,1158.22,6.56,,GEN,3
7205,Hobbs Generating Sta,CAP_GEN_P56458,56458,17,21,NM,32.72,-103.3,GT1,EC,578.1,7497,0.68,0.9,2.01,146.7,2.09,,GEN,4
7214,Russell City Energy,CAP_GEN_P56467,56467,21,23,CA,37.63,-122.13,CTG1,EC,615,7616,0.14,0.9,2.17,206.45,1.96,,GEN,6
7224,Gateway Generating S,CAP_GEN_P56476,56476,21,23,CA,38.01,-121.75,A,EC,563.4,7251,0.59,0.9,1.9,165.76,2.06,,GEN,6
7269,Colusa Generating St,CAP_GEN_P56532,56532,21,23,CA,39.36,-122.27,C,EC,640,7246,0.47,0.9,2.15,270.53,1.97,,GEN,6
7300,John W Turk Jr Power,CAP_GEN_P56564,56564,17,18,AR,33.65,-93.81,1,B7,650,9124,0.7,0.9,4.79,7873.22,9999,,GEN,3
7304,J Lamar Stall Unit,CAP_GEN_P56565,56565,17,18,LA,32.51,-93.76,6STG,EC,511,7256,0.61,0.9,1.72,168.31,2.16,,GEN,2
7324,Wygen III,CAP_GEN_P56596,56596,24,19,WY,44.29,-105.38,5,B7,100,11486,0.91,0.9,0.92,364.02,11.17,,GEN,5
7338,Dry Fork Station,CAP_GEN_P56609,56609,24,19,WY,44.38,-105.46,1,B7,390,10655,0.86,0.9,3.36,471.83,10,,GEN,5
7340,Deer Creek Station,CAP_GEN_P56610,56610,19,7,SD,44.29,-96.52,2,EC,295,7639,0.27,0.9,1.04,368.79,2.69,,GEN,7
7341,Sandy Creek Energy S,CAP_GEN_P56611,56611,1,18,TX,31.47,-96.95,S01,B7,932.59,9507,0.67,0.9,7.17,7873.22,9999,,GEN,2
7385,Longview Power Plant,CAP_GEN_P56671,56671,11,11,WV,39.7,-79.95,MKA01,B5,710,8832,0.83,0.9,5.07,1034.79,6.87,,GEN,1
7440,Spiritwood Station,CAP_GEN_P56786,56786,3,7,ND,46.92,-98.5,1,B3,70.9,8800,0.5,0.9,0.5,7873.22,9999,,GEN,7
7450,Kleen Energy Systems,CAP_GEN_P56798,56798,7,1,CT,41.55,-72.59,ST,EC,268,7199,0.47,0.9,0.89,231.61,1.96,,GEN,1
7451,Kleen Energy Systems,CAP_GEN_P56798,56798,7,1,CT,41.55,-72.59,U2,EC,354,7199,0.44,0.9,1.18,152.96,1.96,,GEN,1
586,Bridgeport Station,CAP_GEN_P568,568,7,1,CT,41.17,-73.18,501,EC,496.6,7050,0.79,0.9,1.62,567.37,10,,GEN,1
7457,Cedar Bayou 4,CAP_GEN_P56806,56806,1,18,TX,29.75,-94.92,41,EC,502,7729,0.27,0.9,1.8,78.12,4.21,,GEN,2
5524,Kingsburg Cogen,CAP_GEN_P10405,10405,21,23,CA,36.54,-119.57,GEN2,EC,33.8,10995,0.03,0.9,0.17,39.28,5.95,,GEN,6
1148,Lansing,CAP_GEN_P1047,1047,3,8,IA,43.33,-91.16,4,B7,235.3,12439,0.5,0.9,2.36,683.64,8.37,,GEN,3
5578,Chambers Cogeneratio,CAP_GEN_P10566,10566,10,2,NJ,39.69,-75.48,GEN1,B7,244,14054,0.5,0.9,2.77,625.56,8.6,,GEN,1
5579,Algonquin Windsor Lo,CAP_GEN_P10567,10567,7,1,CT,41.92,-72.62,GTG,EC,35,11222,0.22,0.9,0.18,104.18,4.79,,GEN,1
5580,Algonquin Windsor Lo,CAP_GEN_P10567,10567,7,1,CT,41.92,-72.62,GTG2,EC,29,11222,0.22,0.9,0.15,38.69,4.79,,GEN,1
5585,Ebensburg Power,CAP_GEN_P10603,10603,10,3,PA,40.45,-78.74,GEN1,B3,50,15014,0.6,0.9,0.6,141.23,10,,GEN,1
5589,CH Resources Beaver,CAP_GEN_P10617,10617,9,2,NY,43.88,-75.43,GEN1,EC,80.3,9799,6.00E-03,0.9,0.36,103.92,4.06,,GEN,1
5590,Carthage Energy LLC,CAP_GEN_P10620,10620,9,2,NY,43.98,-75.62,GEN1,EC,40.1,9847,0.01,0.9,0.18,105.55,4.77,,GEN,1
5591,Carthage Energy LLC,CAP_GEN_P10620,10620,9,2,NY,43.98,-75.62,GEN2,EC,21,9847,0.01,0.9,0.09,58.33,4.77,,GEN,1
5592,CH Resources Syracus,CAP_GEN_P10621,10621,9,2,NY,43.06,-76.21,GEN1,EC,88.4,8815,0.02,0.9,0.36,119.24,4.11,,GEN,1
5596,Hopewell Cogeneratio,CAP_GEN_P10633,10633,13,12,VA,37.29,-77.28,GT1,EC,282.3,9333,0.28,0.9,1.22,116.91,2.28,,GEN,1
5597,Hopewell Cogeneratio,CAP_GEN_P10633,10633,13,12,VA,37.29,-77.28,ST1,EC,96,9333,0.28,0.9,0.41,133.61,2.28,,GEN,1
5611,River Valley,CAP_GEN_P10671,10671,17,18,OK,35.19,-94.64,GEN1,B3,161,11789,0.5,0.9,1.53,462.56,9.92,,GEN,3
5612,River Valley,CAP_GEN_P10671,10671,17,18,OK,35.19,-94.64,GEN2,B3,160,11966,0.5,0.9,1.54,462.56,9.92,,GEN,3
5617,CES Placerita Power,CAP_GEN_P10677,10677,22,23,CA,34.38,-118.5,UNT2,EC,69,9633,0,0.9,0.3,118.8,4.27,,GEN,6
5618,AES Warrior Run Coge,CAP_GEN_P10678,10678,10,10,MD,39.59,-78.74,GEN1,B3,180,11365,0.79,0.9,1.65,494.04,9.61,,GEN,1
1184,Walter Scott Jr Ener,CAP_GEN_P1082,1082,3,8,IA,41.18,-95.84,4,B7,811.13,9885,0.5,0.9,6.48,1152.58,6.58,,GEN,3
1201,George Neal North,CAP_GEN_P1091,1091,3,8,IA,42.3,-96.36,3,B7,513.89,10491,0.5,0.9,4.36,1868.09,7,,GEN,3
1206,Burlington (IA),CAP_GEN_P1104,1104,3,8,IA,40.74,-91.11,1,C1,191.2,10831,0.62,0.9,1.67,577.06,9.27,,GEN,3
87,Cholla,CAP_GEN_P113,113,20,21,AZ,34.93,-110.3,1,B3,116,10724,0.5,0.9,1,384.33,10.87,,GEN,5
90,Cholla,CAP_GEN_P113,113,20,21,AZ,34.93,-110.3,3,B3,271,11048,0.5,0.9,2.42,654.67,8.42,,GEN,5
1270,Muscatine Plant #1,CAP_GEN_P1167,1167,3,8,IA,41.39,-91.05,7,C1,20.1,8800,0.5,0.9,0.14,69.34,10,,GEN,3
1271,Muscatine Plant #1,CAP_GEN_P1167,1167,3,8,IA,41.39,-91.05,8,C1,25.1,8800,0.5,0.9,0.17,82.77,10,,GEN,3
1272,Muscatine Plant #1,CAP_GEN_P1167,1167,3,8,IA,41.39,-91.05,8A,C1,14.5,8800,0.74,0.9,0.1,53.27,10,,GEN,3
1273,Muscatine Plant #1,CAP_GEN_P1167,1167,3,8,IA,41.39,-91.05,9,C4,160.8,8800,0.56,0.9,1.14,550.79,9.22,,GEN,3
97,West Phoenix,CAP_GEN_P117,117,20,21,AZ,33.44,-112.15,3B,EC,820,10307,0.34,0.9,3.93,174.78,3.46,,GEN,5
1323,Riverton,CAP_GEN_P1239,1239,18,9,KS,37.07,-94.69,12,EC,266,7328,0.51,0.9,0.9,9999,9999,,GEN,3
1330,La Cygne,CAP_GEN_P1241,1241,18,9,KS,38.34,-94.64,1,B5,757.8,10861,0.5,0.9,6.65,2906.37,7.44,,GEN,3
1334,La Cygne,CAP_GEN_P1241,1241,18,9,KS,38.34,-94.64,2,B5,668.8,10639,0.51,0.9,5.75,4404.38,7.41,,GEN,3
1344,Lawrence Energy Cent,CAP_GEN_P1250,1250,18,9,KS,39,-95.26,4,B3,111.3,11672,0.56,0.9,1.05,380.02,10.93,,GEN,3
1346,Lawrence Energy Cent,CAP_GEN_P1250,1250,18,9,KS,39,-95.26,5,B3,374,11195,0.53,0.9,3.38,809.7,7.65,,GEN,3
114,Cross,CAP_GEN_P130,130,14,13,SC,33.37,-80.11,1,C7,580,10540,0.5,0.9,4.94,1014.13,6.93,,GEN,1
115,Cross,CAP_GEN_P130,130,14,13,SC,33.37,-80.11,2,C7,565,10506,0.5,0.9,4.8,1065.92,6.79,,GEN,1
116,Cross,CAP_GEN_P130,130,14,13,SC,33.37,-80.11,3,C7,610,9982,0.53,0.9,4.92,1049.9,6.78,,GEN,1
1533,Shawnee,CAP_GEN_P1379,1379,16,16,KY,37.15,-88.77,4,B7,134,11417,0.5,0.9,1.23,424.62,10.35,,GEN,1
1535,Shawnee,CAP_GEN_P1379,1379,16,16,KY,37.15,-88.77,5,B7,134,11503,0.56,0.9,1.24,424.98,10.34,,GEN,1
1538,Shawnee,CAP_GEN_P1379,1379,16,16,KY,37.15,-88.77,6,B7,134,11524,0.52,0.9,1.24,433.02,10.25,,GEN,1
1540,Shawnee,CAP_GEN_P1379,1379,16,16,KY,37.15,-88.77,7,B7,134,11462,0.51,0.9,1.24,431.19,10.27,,GEN,1
1543,Shawnee,CAP_GEN_P1379,1379,16,16,KY,37.15,-88.77,8,B7,134,11478,0.52,0.9,1.24,432.67,10.25,,GEN,1
1546,Shawnee,CAP_GEN_P1379,1379,16,16,KY,37.15,-88.77,9,B7,134,11479,0.56,0.9,1.24,430.89,10.27,,GEN,1
1557,Cooper,CAP_GEN_P1384,1384,11,16,KY,36.99,-84.59,1,CX,116,10815,0.5,0.9,1.01,364.58,11.16,,GEN,1
1559,Cooper,CAP_GEN_P1384,1384,11,16,KY,36.99,-84.59,2,B7,225,10903,0.5,0.9,1.98,549.8,9.14,,GEN,1
1568,R S Nelson,CAP_GEN_P1393,1393,6,18,LA,30.28,-93.29,6,C1,523.99,11851,0.5,0.9,5.02,1073.15,6.72,,GEN,2
1574,Coughlin Power Stati,CAP_GEN_P1396,1396,6,18,LA,30.84,-92.26,6,EC,736.3,7670,0.99,0.9,2.62,109.02,2.39,,GEN,2
1585,Nine Mile Point,CAP_GEN_P1403,1403,6,18,LA,29.94,-90.14,6B,EC,336,7292,0.61,0.9,1.14,420.45,10,,GEN,2
1586,Nine Mile Point,CAP_GEN_P1403,1403,6,18,LA,29.94,-90.14,6C,EC,554.9,7292,0.61,0.9,1.88,616.81,10,,GEN,2
131,Kyrene,CAP_GEN_P147,147,20,21,AZ,33.35,-111.93,KY7,EC,254,7339,0.54,0.9,0.86,183.66,2.74,,GEN,5
1655,Herbert A Wagner,CAP_GEN_P1554,1554,10,10,MD,39.17,-76.52,3,C1,305,12782,0.5,0.9,3.15,648.09,8.23,,GEN,1
1678,Morgantown Generatin,CAP_GEN_P1573,1573,10,10,MD,38.35,-76.97,ST1,C7,596,10641,0.5,0.9,5.12,1067.55,6.72,,GEN,1
1680,Morgantown Generatin,CAP_GEN_P1573,1573,10,10,MD,38.35,-76.97,ST2,C7,609,10465,0.5,0.9,5.15,1043.29,6.8,,GEN,1
1688,Mystic Generating St,CAP_GEN_P1588,1588,7,1,MA,42.39,-71.06,GT82,EC,1413.6,7530,0.24,0.9,4.95,242.16,2.35,,GEN,1
1691,Kendall Square Stati,CAP_GEN_P1595,1595,7,1,MA,42.36,-71.07,3,EC,22.9,10007,0.64,0.9,0.1,32.74,2.92,,GEN,1
1823,Monroe (MI),CAP_GEN_P1733,1733,5,5,MI,41.89,-83.34,4,C7,762,10409,0.56,0.9,6.41,1498.33,7.34,,GEN,1
1840,St Clair,CAP_GEN_P1743,1743,5,5,MI,42.76,-82.47,2,C1,154,11733,0.5,0.9,1.46,464.02,9.91,,GEN,1
1841,St Clair,CAP_GEN_P1743,1743,5,5,MI,42.76,-82.47,3,C1,160,11725,0.5,0.9,1.51,482.58,9.72,,GEN,1
1843,St Clair,CAP_GEN_P1743,1743,5,5,MI,42.76,-82.47,6,C1,311,11575,0.5,0.9,2.91,678.43,8.28,,GEN,1
1844,St Clair,CAP_GEN_P1743,1743,5,5,MI,42.76,-82.47,7,C1,440,10967,0.5,0.9,3.9,875.24,7.39,,GEN,1
1848,Trenton Channel,CAP_GEN_P1745,1745,5,5,MI,42.12,-83.18,9,C1,495,11521,0.5,0.9,4.61,946.95,7.14,,GEN,1
1907,Erickson Station,CAP_GEN_P1832,1832,5,5,MI,42.69,-84.65,1,C1,154.5,11274,0.53,0.9,1.4,520.97,9.4,,GEN,1
1958,Clay Boswell,CAP_GEN_P1893,1893,3,7,MN,47.26,-93.65,3,B5,352,10743,0.62,0.9,3.05,772.37,7.82,,GEN,3
1960,Clay Boswell,CAP_GEN_P1893,1893,3,7,MN,47.26,-93.65,4,B7,585,10746,0.66,0.9,5.08,892.48,6.91,,GEN,3
1974,Black Dog,CAP_GEN_P1904,1904,3,7,MN,44.81,-93.25,2,EC,117,7450,0.45,0.9,0.4,148.22,2.71,,GEN,3
1977,Black Dog,CAP_GEN_P1904,1904,3,7,MN,44.81,-93.25,5,EC,165,7450,0.45,0.9,0.57,218.93,2.71,,GEN,3
1981,High Bridge,CAP_GEN_P1912,1912,3,7,MN,44.93,-93.11,9,EC,530,7050,0.55,0.9,1.73,172.4,2.12,,GEN,3
1985,Allen S King,CAP_GEN_P1915,1915,3,7,MN,45.03,-92.77,1,B7,511,10029,0.5,0.9,4.14,932.13,7.19,,GEN,3
1991,Riverside (MN),CAP_GEN_P1927,1927,3,7,MN,45.02,-93.27,10,EC,147,7267,0.51,0.9,0.49,161.8,2.07,,GEN,3
1993,Riverside (MN),CAP_GEN_P1927,1927,3,7,MN,45.02,-93.27,9,EC,307,7267,0.51,0.9,1.03,161.8,2.07,,GEN,3
2027,Hibbing,CAP_GEN_P1979,1979,3,7,MN,47.42,-92.93,3,C1,10,8800,0.5,0.9,0.07,39.29,10,,GEN,3
2028,Hibbing,CAP_GEN_P1979,1979,3,7,MN,47.42,-92.93,5,C1,19.5,8800,0.5,0.9,0.13,67.68,10,,GEN,3
2029,Hibbing,CAP_GEN_P1979,1979,3,7,MN,47.42,-92.93,6,C1,1,8800,0.5,0.9,7.12E-03,5.5,10,,GEN,3
2254,Thomas Hill,CAP_GEN_P2168,2168,4,9,MO,39.55,-92.63,1,C1,165,9816,0.81,0.9,1.31,467.55,9.48,,GEN,3
2255,Thomas Hill,CAP_GEN_P2168,2168,4,9,MO,39.55,-92.63,2,C1,269,9894,0.73,0.9,2.15,685.25,8.26,,GEN,3
2256,Thomas Hill,CAP_GEN_P2168,2168,4,9,MO,39.55,-92.63,3,C1,701,9846,0.8,0.9,5.58,1493.17,7.51,,GEN,3
2315,Lon Wright,CAP_GEN_P2240,2240,19,8,NE,41.42,-96.46,6,B1,15.5,12326,0.5,0.9,0.15,56.24,10,,GEN,3
2316,Lon Wright,CAP_GEN_P2240,2240,19,8,NE,41.42,-96.46,7,B1,21,12183,0.5,0.9,0.2,71.82,10,,GEN,3
2317,Lon Wright,CAP_GEN_P2240,2240,19,8,NE,41.42,-96.46,8,C1,82,12031,0.5,0.9,0.79,335.83,11.64,,GEN,3
2341,Sheldon,CAP_GEN_P2277,2277,19,8,NE,40.55,-96.78,1,B1,104,11750,0.5,0.9,0.98,364.76,10.89,,GEN,3
2342,Sheldon,CAP_GEN_P2277,2277,19,8,NE,40.55,-96.78,2,B1,115,11752,0.5,0.9,1.09,411.99,10.29,,GEN,3
2348,North Omaha,CAP_GEN_P2291,2291,19,8,NE,41.32,-95.94,4,C1,120.1,10643,0.69,0.9,1.03,448.12,10.08,,GEN,3
2349,North Omaha,CAP_GEN_P2291,2291,19,8,NE,41.32,-95.94,5,C1,216.2,10968,0.62,0.9,1.91,576.57,8.93,,GEN,3
2382,Clark (NVE),CAP_GEN_P2322,2322,25,20,NV,36.08,-115.05,10,EC,85,9303,0.13,0.9,0.36,102.43,2.08,,GEN,5
2384,Clark (NVE),CAP_GEN_P2322,2322,25,20,NV,36.08,-115.05,9,EC,85,9303,0.13,0.9,0.36,102.43,2.08,,GEN,5
2386,Clark (NVE),CAP_GEN_P2322,2322,25,20,NV,36.08,-115.05,GT5,EC,292,9303,0.13,0.9,1.26,87.97,2.08,,GEN,5
2394,Tracy,CAP_GEN_P2336,2336,25,20,NV,39.56,-119.52,10,EC,263,7724,0.66,0.9,0.94,415.5,2.8,,GEN,5
2396,Tracy,CAP_GEN_P2336,2336,25,20,NV,39.56,-119.52,4,EC,394,7724,0.66,0.9,1.41,94.79,2.8,,GEN,5
2421,Merrimack,CAP_GEN_P2364,2364,7,1,NH,43.14,-71.46,1,C7,108,11621,0.5,0.9,1.01,345.11,11.24,,GEN,1
2423,Merrimack,CAP_GEN_P2364,2364,7,1,NH,43.14,-71.46,2,C7,330.5,11362,0.5,0.9,3.03,728.18,7.94,,GEN,1
2426,Schiller,CAP_GEN_P2367,2367,7,1,NH,43.09,-70.78,4,C1,47.5,18084,0.5,0.9,0.69,135.84,10,,GEN,1
2714,Asheville,CAP_GEN_P2706,2706,14,13,NC,35.47,-82.54,ST6,EC,170,7050,0.73,0.9,0.55,244.99,10,,GEN,1
2726,Roxboro,CAP_GEN_P2712,2712,14,13,NC,36.48,-79.07,1,C7,379,10629,0.5,0.9,3.25,794.27,7.86,,GEN,1
2728,Roxboro,CAP_GEN_P2712,2712,14,13,NC,36.48,-79.07,2,C7,668,10748,0.5,0.9,5.8,1068.84,6.78,,GEN,1
2730,Roxboro,CAP_GEN_P2712,2712,14,13,NC,36.48,-79.07,3,C7,694,10649,0.5,0.9,5.97,1119.24,6.65,,GEN,1
2732,Roxboro,CAP_GEN_P2712,2712,14,13,NC,36.48,-79.07,4,C7,698,10595,0.5,0.9,5.98,1120.19,6.65,,GEN,1
2744,G G Allen,CAP_GEN_P2718,2718,14,13,NC,35.19,-81.01,1,C4,162,11385,0.5,0.9,1.49,473.9,9.81,,GEN,1
2746,G G Allen,CAP_GEN_P2718,2718,14,13,NC,35.19,-81.01,2,C4,162,11101,0.5,0.9,1.45,473.75,9.81,,GEN,1
2748,G G Allen,CAP_GEN_P2718,2718,14,13,NC,35.19,-81.01,3,H4,258,10843,0.5,0.9,2.26,593.54,8.81,,GEN,1
2750,G G Allen,CAP_GEN_P2718,2718,14,13,NC,35.19,-81.01,4,H4,257,11412,0.5,0.9,2.37,615.28,8.67,,GEN,1
2752,G G Allen,CAP_GEN_P2718,2718,14,13,NC,35.19,-81.01,5,C4,259,11163,0.5,0.9,2.33,645.85,8.47,,GEN,1
2760,Buck,CAP_GEN_P2720,2720,14,13,NC,35.71,-80.37,ST10,EC,668,7086,0.76,0.9,2.2,280.01,1.99,,GEN,1
2765,James E. Rogers Ener,CAP_GEN_P2721,2721,14,13,NC,35.22,-81.75,5,C7,544,9779,0.5,0.9,4.3,959.03,7.1,,GEN,1
2767,James E. Rogers Ener,CAP_GEN_P2721,2721,14,13,NC,35.22,-81.75,6,B5,844,9287,0.59,0.9,6.33,7873.22,9999,,GEN,1
2773,Dan River,CAP_GEN_P2723,2723,14,13,NC,36.48,-79.72,CT9,EC,662,7133,0.75,0.9,2.19,160.57,1.98,,GEN,1
2775,Marshall (NC),CAP_GEN_P2727,2727,14,13,NC,35.59,-80.96,1,C4,370,9852,0.5,0.9,2.94,759.46,7.87,,GEN,1
2777,Marshall (NC),CAP_GEN_P2727,2727,14,13,NC,35.59,-80.96,2,C4,370,9862,0.5,0.9,2.95,753.03,7.9,,GEN,1
2780,Marshall (NC),CAP_GEN_P2727,2727,14,13,NC,35.59,-80.96,3,C7,658,9658,0.5,0.9,5.14,1070.88,6.78,,GEN,1
2783,Marshall (NC),CAP_GEN_P2727,2727,14,13,NC,35.59,-80.96,4,C4,660,9639,0.57,0.9,5.14,1056.78,6.81,,GEN,1
2929,Kyger Creek,CAP_GEN_P2876,2876,11,4,OH,38.91,-82.12,4,C7,192.2,10678,0.64,0.9,1.65,505.93,9.5,,GEN,1
2931,Kyger Creek,CAP_GEN_P2876,2876,11,4,OH,38.91,-82.12,5,C7,192.2,10760,0.63,0.9,1.67,524.34,9.34,,GEN,1
2947,Dover,CAP_GEN_P2914,2914,11,4,OH,40.52,-81.46,3,H1,8,19842,0.5,0.9,0.12,32.65,10,,GEN,1
2948,Dover,CAP_GEN_P2914,2914,11,4,OH,40.52,-81.46,4,B1,15.2,16636,0.5,0.9,0.2,55.35,10,,GEN,1
2958,Orrville,CAP_GEN_P2935,2935,11,4,OH,40.85,-81.76,10,C1,23,15668,0.5,0.9,0.29,77.22,10,,GEN,1
2960,Orrville,CAP_GEN_P2935,2935,11,4,OH,40.85,-81.76,7,C1,5,19842,0.5,0.9,0.08,22.02,10,,GEN,1
2961,Orrville,CAP_GEN_P2935,2935,11,4,OH,40.85,-81.76,8,C1,7.5,19842,0.5,0.9,0.12,30.94,10,,GEN,1
2962,Orrville,CAP_GEN_P2935,2935,11,4,OH,40.85,-81.76,9,C1,20,15720,0.5,0.9,0.25,69.07,10,,GEN,1
2963,Painesville,CAP_GEN_P2936,2936,11,4,OH,41.72,-81.25,3,C1,7,19842,0.5,0.9,0.11,29.21,10,,GEN,1
2964,Painesville,CAP_GEN_P2936,2936,11,4,OH,41.72,-81.25,5,C1,15.5,17850,0.5,0.9,0.22,56.24,10,,GEN,1
2965,Painesville,CAP_GEN_P2936,2936,11,4,OH,41.72,-81.25,7,C1,17.5,16949,0.5,0.9,0.23,62.04,10,,GEN,1
2966,Painesville,CAP_GEN_P2936,2936,11,4,OH,41.72,-81.25,ST2,C1,7,19842,0.5,0.9,0.11,29.21,10,,GEN,1
2984,Muskogee,CAP_GEN_P2952,2952,17,18,OK,35.76,-95.28,6,C1,503,11259,0.5,0.9,4.58,1002.7,6.98,,GEN,3
2991,Northeastern,CAP_GEN_P2963,2963,17,18,OK,36.43,-95.7,1,EC,444,7959,0.45,0.9,1.64,138.2,2.18,,GEN,3
2993,Northeastern,CAP_GEN_P2963,2963,17,18,OK,36.43,-95.7,3,B7,460,10520,0.53,0.9,3.91,903.82,7.29,,GEN,3
261,Limestone,CAP_GEN_P298,298,1,18,TX,31.42,-96.25,1,C4,831,10830,0.5,0.9,7.27,1637.05,7.07,,GEN,2
262,Limestone,CAP_GEN_P298,298,1,18,TX,31.42,-96.25,2,C4,858,10799,0.55,0.9,7.49,1704.61,6.95,,GEN,2
4,Barry,CAP_GEN_P3,3,15,17,AL,31,-88.01,4,C1,362,10168,0.5,0.9,2.97,756.6,7.88,,GEN,2
3214,Hunlock Power Statio,CAP_GEN_P3176,3176,10,3,PA,41.2,-76.07,3,EC,125.5,8272,0.31,0.9,0.48,191.47,10,,GEN,1
3222,Manchester Street,CAP_GEN_P3236,3236,7,1,RI,41.81,-71.4,G10A,EC,471,8034,0.32,0.9,1.76,167.29,3.23,,GEN,1
3252,W S Lee,CAP_GEN_P3264,3264,14,13,SC,34.6,-82.43,ST10,EC,786,7050,0.79,0.9,2.57,797.46,10,,GEN,1
3277,Urquhart,CAP_GEN_P3295,3295,14,13,SC,33.43,-81.91,1,EC,128,7986,0.47,0.9,0.47,86.9,2.71,,GEN,1
3279,Urquhart,CAP_GEN_P3295,3295,14,13,SC,33.43,-81.91,CT1,EC,330,7986,0.47,0.9,1.22,219.98,2.71,,GEN,1
3281,Wateree,CAP_GEN_P3297,3297,14,13,SC,33.82,-80.62,1,B5,342,10344,0.5,0.9,2.86,734.48,7.99,,GEN,1
3283,Wateree,CAP_GEN_P3297,3297,14,13,SC,33.82,-80.62,2,B5,342,10271,0.5,0.9,2.84,733.46,8,,GEN,1
3286,Williams,CAP_GEN_P3298,3298,14,13,SC,33.01,-79.93,ST1,C7,605,10054,0.5,0.9,4.91,1019.35,6.92,,GEN,1
3318,Allen,CAP_GEN_P3393,3393,16,16,TN,35.07,-90.14,CTG2,EC,623.8,7050,0.45,0.9,2.04,673.06,10,,GEN,1
3320,Allen,CAP_GEN_P3393,3393,16,16,TN,35.07,-90.14,STG1,EC,428.3,7050,0.45,0.9,1.4,506.99,10,,GEN,1
3323,Bull Run,CAP_GEN_P3396,3396,16,16,TN,36.02,-84.15,1,C7,865,9896,0.5,0.9,6.92,1518.26,7.3,,GEN,1
3327,Cumberland (TN),CAP_GEN_P3399,3399,16,16,TN,36.39,-87.65,1,C7,1239,10155,0.5,0.9,10.17,1923.43,6.61,,GEN,1
3329,Cumberland (TN),CAP_GEN_P3399,3399,16,16,TN,36.39,-87.65,2,C7,1231,10168,0.5,0.9,10.12,1983.81,6.52,,GEN,1
3333,Gallatin (TN),CAP_GEN_P3403,3403,16,16,TN,36.31,-86.4,1,C1,225,10997,0.52,0.9,2,571.7,8.97,,GEN,1
3334,Gallatin (TN),CAP_GEN_P3403,3403,16,16,TN,36.31,-86.4,2,C1,225,10937,0.5,0.9,1.99,576.7,8.93,,GEN,1
3335,Gallatin (TN),CAP_GEN_P3403,3403,16,16,TN,36.31,-86.4,3,C1,263,10998,0.5,0.9,2.33,641,8.5,,GEN,1
3336,Gallatin (TN),CAP_GEN_P3403,3403,16,16,TN,36.31,-86.4,4,C1,263,10879,0.5,0.9,2.31,645.71,8.47,,GEN,1
3343,John Sevier,CAP_GEN_P3405,3405,16,16,TN,36.37,-82.96,STG1,EC,878,7085,0.6,0.9,2.89,384.39,2.22,,GEN,1
3355,Kingston,CAP_GEN_P3407,3407,16,16,TN,35.89,-84.51,1,C7,132,11376,0.5,0.9,1.21,436.2,10.21,,GEN,1
3357,Kingston,CAP_GEN_P3407,3407,16,16,TN,35.89,-84.51,2,C7,132,11426,0.5,0.9,1.21,437.85,10.19,,GEN,1
3359,Kingston,CAP_GEN_P3407,3407,16,16,TN,35.89,-84.51,3,C7,132,11478,0.5,0.9,1.22,436.5,10.21,,GEN,1
3361,Kingston,CAP_GEN_P3407,3407,16,16,TN,35.89,-84.51,4,C7,132,11406,0.5,0.9,1.21,436.69,10.21,,GEN,1
3363,Kingston,CAP_GEN_P3407,3407,16,16,TN,35.89,-84.51,5,C7,174,11420,0.5,0.9,1.6,519.23,9.39,,GEN,1
3366,Kingston,CAP_GEN_P3407,3407,16,16,TN,35.89,-84.51,6,C7,174,11415,0.5,0.9,1.6,516.35,9.41,,GEN,1
3369,Kingston,CAP_GEN_P3407,3407,16,16,TN,35.89,-84.51,7,C7,174,11407,0.5,0.9,1.6,518.99,9.39,,GEN,1
3372,Kingston,CAP_GEN_P3407,3407,16,16,TN,35.89,-84.51,8,C7,174,11413,0.5,0.9,1.6,522.11,9.36,,GEN,1
3375,Kingston,CAP_GEN_P3407,3407,16,16,TN,35.89,-84.51,9,C7,174,11527,0.5,0.9,1.62,520.38,9.38,,GEN,1
3401,Nueces Bay,CAP_GEN_P3441,3441,1,18,TX,27.81,-97.41,7,EC,633,7556,0.26,0.9,2.22,385.83,2.33,,GEN,2
3403,Victoria,CAP_GEN_P3443,3443,1,18,TX,28.78,-97.01,5,EC,288,7871,0.35,0.9,1.05,153.64,2.56,,GEN,2
3408,Newman,CAP_GEN_P3456,3456,20,18,TX,31.98,-106.43,4,EC,351,9108,0.46,0.9,1.48,119.83,2.61,,GEN,4
3410,Newman,CAP_GEN_P3456,3456,20,18,TX,31.98,-106.43,CT1,EC,138,9108,0.46,0.9,0.58,103.95,2.61,,GEN,4
3420,T H Wharton,CAP_GEN_P3469,3469,1,18,TX,29.94,-95.53,3,EC,664,9689,0.12,0.9,2.99,137.92,2.21,,GEN,2
3423,W A Parish,CAP_GEN_P3470,3470,1,18,TX,29.48,-95.63,5,B1,664,10679,0.62,0.9,5.73,1156.69,6.56,,GEN,2
3424,W A Parish,CAP_GEN_P3470,3470,1,18,TX,29.48,-95.63,6,B1,663,10647,0.53,0.9,5.7,1141.62,6.57,,GEN,2
3425,W A Parish,CAP_GEN_P3470,3470,1,18,TX,29.48,-95.63,7,B1,577,10708,0.66,0.9,4.99,991.76,7,,GEN,2
3426,W A Parish,CAP_GEN_P3470,3470,1,18,TX,29.48,-95.63,8,B5,610,10671,0.62,0.9,5.26,1074.33,6.77,,GEN,2
3670,John E Amos,CAP_GEN_P3935,3935,11,11,WV,38.47,-81.82,2,C7,800,9918,0.5,0.9,6.41,1453.93,7.44,,GEN,1
3672,John E Amos,CAP_GEN_P3935,3935,11,11,WV,38.47,-81.82,3,C7,1300,10009,0.5,0.9,10.52,2008.87,6.49,,GEN,1
3684,FirstEnergy Fort Mar,CAP_GEN_P3943,3943,11,11,WV,39.71,-79.92,1,C4,552,10441,0.6,0.9,4.66,994.24,6.99,,GEN,1
3686,FirstEnergy Fort Mar,CAP_GEN_P3943,3943,11,11,WV,39.71,-79.92,2,C4,546,10470,0.61,0.9,4.62,1008.15,6.95,,GEN,1
3688,FirstEnergy Harrison,CAP_GEN_P3944,3944,11,11,WV,39.38,-80.33,1,C7,652,10114,0.69,0.9,5.33,1076.81,6.76,,GEN,1
3689,FirstEnergy Harrison,CAP_GEN_P3944,3944,11,11,WV,39.38,-80.33,2,C7,651,10049,0.73,0.9,5.29,1050.85,6.83,,GEN,1
3690,FirstEnergy Harrison,CAP_GEN_P3944,3944,11,11,WV,39.38,-80.33,3,C7,651,10067,0.72,0.9,5.3,1075.26,6.76,,GEN,1
3698,Mitchell (WV),CAP_GEN_P3948,3948,11,11,WV,39.83,-80.81,1,C7,770,10574,0.5,0.9,6.58,1424.97,7.51,,GEN,1
3704,Mitchell (WV),CAP_GEN_P3948,3948,11,11,WV,39.83,-80.81,2,C7,790,10374,0.5,0.9,6.62,1474.74,7.39,,GEN,1
3710,Mt Storm,CAP_GEN_P3954,3954,13,11,WV,39.2,-79.26,1,C7,554,10405,0.5,0.9,4.66,969.98,7.24,,GEN,1
3712,Mt Storm,CAP_GEN_P3954,3954,13,11,WV,39.2,-79.26,2,C7,555,10305,0.5,0.9,4.62,952.95,7.12,,GEN,1
3714,Mt Storm,CAP_GEN_P3954,3954,13,11,WV,39.2,-79.26,3,C7,520,10625,0.5,0.9,4.46,974.23,7.1,,GEN,1
354,Harbor,CAP_GEN_P399,399,22,23,CA,33.77,-118.26,10B,EC,146,11701,0.03,0.9,0.79,117.24,2.67,,GEN,6
355,Harbor,CAP_GEN_P399,399,22,23,CA,33.77,-118.26,5,EC,56,11701,0.03,0.9,0.3,95.26,2.67,,GEN,6
358,Haynes,CAP_GEN_P400,400,22,23,CA,33.76,-118.09,10,EC,162.5,7141,0.52,0.9,0.53,144.25,2.04,,GEN,6
361,Haynes,CAP_GEN_P400,400,22,23,CA,33.76,-118.09,8,EC,235,7141,0.52,0.9,0.78,214.55,2.04,,GEN,6
362,Haynes,CAP_GEN_P400,400,22,23,CA,33.76,-118.09,9,EC,162.5,7141,0.52,0.9,0.53,144.25,2.04,,GEN,6
367,Scattergood,CAP_GEN_P404,404,22,23,CA,33.91,-118.42,4,EC,313,7175,0.55,0.9,1.04,397.85,10,,GEN,6
458,Cherokee,CAP_GEN_P469,469,24,20,CO,39.8,-104.96,7,EC,576,7154,0.54,0.9,1.91,634.28,10,,GEN,5
459,Comanche (CO),CAP_GEN_P470,470,24,20,CO,38.2,-104.57,1,B7,325,11141,0.71,0.9,2.92,719.34,8.07,,GEN,5
461,Comanche (CO),CAP_GEN_P470,470,24,20,CO,38.2,-104.57,2,B7,335,10942,0.71,0.9,2.96,730.24,8.01,,GEN,5
463,Comanche (CO),CAP_GEN_P470,470,24,20,CO,38.2,-104.57,3,B7,749.99,10500,0.57,0.9,6.36,1472.2,7.4,,GEN,5
3900,Thomas C Ferguson,CAP_GEN_P4937,4937,1,18,TX,30.55,-98.37,STG,EC,515.97,7050,0.71,0.9,1.69,9999,9999,,GEN,2
3902,Barney M Davis,CAP_GEN_P4939,4939,1,18,TX,27.6,-97.31,2,EC,633,7688,0.23,0.9,2.26,374.02,2.33,,GEN,2
5709,Pittsfield Generatin,CAP_GEN_P50002,50002,7,1,MA,42.45,-73.21,GEN3,EC,110.1,9330,0.04,0.9,0.47,60.63,3.05,,GEN,1
5710,Pittsfield Generatin,CAP_GEN_P50002,50002,7,1,MA,42.45,-73.21,GEN4,EC,47.6,9330,0.04,0.9,0.2,84.89,3.05,,GEN,1
5712,Linden Cogen Plant,CAP_GEN_P50006,50006,8,2,NJ,40.63,-74.21,GTG2,EC,654.8,9464,0.66,0.9,2.88,121.92,2.87,,GEN,1
5713,Linden Cogen Plant,CAP_GEN_P50006,50006,8,2,NJ,40.63,-74.21,STG1,EC,296.3,9464,0.66,0.9,1.3,121.92,2.87,,GEN,1
5734,Paris Energy Center,CAP_GEN_P50109,50109,1,18,TX,33.69,-95.55,GEN2,EC,158,8936,0.19,0.9,0.65,133.87,2.59,,GEN,4
5735,Paris Energy Center,CAP_GEN_P50109,50109,1,18,TX,33.69,-95.55,GEN3,EC,78,8936,0.19,0.9,0.32,127.34,2.59,,GEN,4
5739,Signal Hill Generati,CAP_GEN_P50127,50127,1,18,TX,33.86,-98.58,GTB,EC,76.1,13994,0.01,0.9,0.49,48.7,4.22,,GEN,4
5791,Bethpage Power Plant,CAP_GEN_P50292,50292,8,2,NY,40.74,-73.49,GEN3,EC,55,8943,0.33,0.9,0.22,28.16,4.55,,GEN,1
5794,Bethpage Power Plant,CAP_GEN_P50292,50292,8,2,NY,40.74,-73.49,GEN6,EC,82,8943,0.33,0.9,0.34,125.46,4.55,,GEN,1
5824,Newark Bay Cogenerat,CAP_GEN_P50385,50385,10,2,NJ,40.72,-74.13,GEN1,EC,120.2,9469,0.03,0.9,0.52,78.08,3.43,,GEN,1
5841,Indeck Silver Spring,CAP_GEN_P50449,50449,9,2,NY,42.65,-78.07,GEN2,EC,51.9,9928,0.07,0.9,0.23,49.93,4.88,,GEN,1
5951,Parlin Power Plant,CAP_GEN_P50799,50799,10,2,NJ,40.46,-74.32,GEN2,EC,73.4,10050,9.00E-03,0.9,0.34,95.22,4.51,,GEN,1
5952,Parlin Power Plant,CAP_GEN_P50799,50799,10,2,NJ,40.46,-74.32,GEN4,EC,41.2,10050,0.01,0.9,0.19,52.62,4.51,,GEN,1
5953,Odyssey Energy Altur,CAP_GEN_P50815,50815,1,18,TX,29.81,-95.1,GEN1,EC,596.3,11648,0.65,0.9,3.23,92.15,2.42,,GEN,2
5961,TES Filer City Stati,CAP_GEN_P50835,50835,5,5,MI,44.21,-86.28,GEN1,B7,60,12851,0.93,0.9,0.62,161.97,10,,GEN,1
5966,OLS Energy Chino,CAP_GEN_P50850,50850,22,23,CA,33.99,-117.68,GEN2,EC,29,9595,0.03,0.9,0.12,20.91,6.12,,GEN,6
5967,CSUCI Site Authority,CAP_GEN_P50851,50851,22,23,CA,34.16,-119.04,GEN2,EC,28.3,8843,0.01,0.9,0.11,25.22,6.34,,GEN,6
5989,Northampton Generati,CAP_GEN_P50888,50888,10,3,PA,40.69,-75.47,GEN1,B3,112,10953,0.5,0.9,0.99,417.5,10.44,,GEN,1
6005,Hardee Power Station,CAP_GEN_P50949,50949,2,15,FL,27.63,-81.96,GEN1,EC,140,8697,0.31,0.9,0.56,112.72,2.78,,GEN,2
6006,Hardee Power Station,CAP_GEN_P50949,50949,2,15,FL,27.63,-81.96,GEN3,EC,78,8697,0.31,0.9,0.31,125.6,2.78,,GEN,2
6008,Sunnyside Cogen Asso,CAP_GEN_P50951,50951,25,20,UT,39.54,-110.39,GEN1,B3,51,12180,0.87,0.9,0.5,143.37,10,,GEN,5
6016,Scrubgrass Reclamati,CAP_GEN_P50974,50974,10,3,PA,41.26,-79.81,GEN1,B3,83.2,13809,0.5,0.9,0.92,310.41,12.07,,GEN,1
6018,Carr Street Generati,CAP_GEN_P50978,50978,9,2,NY,43.06,-76.08,GEN2,EC,70,8727,0.12,0.9,0.28,66.72,3.98,,GEN,1
6019,Carr Street Generati,CAP_GEN_P50978,50978,9,2,NY,43.06,-76.08,GEN3,EC,23,8727,0.12,0.9,0.09,44.48,3.98,,GEN,1
6025,Ocean State Power,CAP_GEN_P51030,51030,7,1,RI,42.01,-71.66,GEN2,EC,142.4,8254,0.52,0.9,0.54,99.81,2.79,,GEN,1
6026,Ocean State Power,CAP_GEN_P51030,51030,7,1,RI,42.01,-71.66,GEN3,EC,76.2,8254,0.35,0.9,0.29,106.84,2.79,,GEN,1
6033,Doswell Energy Cente,CAP_GEN_P52019,52019,13,12,VA,37.82,-77.44,GEN1,EC,209.4,8674,0.67,0.9,0.84,131.1,2.39,,GEN,1
6101,Kennedy Internationa,CAP_GEN_P54114,54114,8,2,NY,40.64,-73.77,GEN1,EC,126.1,9124,0.43,0.9,0.53,93.26,3.66,,GEN,1
6104,Fortistar North Tona,CAP_GEN_P54131,54131,9,2,NY,43.04,-78.85,GEN1,EC,36.8,8676,0.01,0.9,0.14,109.5,4.95,,GEN,1
6105,Fortistar North Tona,CAP_GEN_P54131,54131,9,2,NY,43.04,-78.85,GEN2,EC,20,8676,0.01,0.9,0.08,44.92,4.95,,GEN,1
6122,Saguaro Power,CAP_GEN_P54271,54271,25,20,NV,36.04,-115.01,CTG2,EC,72,9169,0.82,0.9,0.3,33.81,7.65,,GEN,5
6123,Saguaro Power,CAP_GEN_P54271,54271,25,20,NV,36.04,-115.01,STG,EC,29,9169,0.82,0.9,0.12,26.29,7.65,,GEN,5
6137,Ocean State Power II,CAP_GEN_P54324,54324,7,1,RI,42.01,-71.67,GEN1,EC,142.4,8684,0.43,0.9,0.57,99.79,2.79,,GEN,1
6138,Ocean State Power II,CAP_GEN_P54324,54324,7,1,RI,42.01,-71.67,GEN3,EC,76.2,8684,0.34,0.9,0.3,106.82,2.79,,GEN,1
6146,Nevada Cogen Associa,CAP_GEN_P54349,54349,25,20,NV,36.22,-114.87,GTA,EC,93.1,9547,0.88,0.9,0.41,25.61,7.85,,GEN,5
6147,Nevada Cogen Assoc#1,CAP_GEN_P54350,54350,25,20,NV,36.34,-114.92,GTB,EC,85.5,9251,0.95,0.9,0.36,25.38,7.47,,GEN,5
6149,Orange Cogeneration,CAP_GEN_P54365,54365,2,15,FL,27.87,-81.82,APC1,EC,110.6,8183,0.39,0.9,0.42,73.69,3.82,,GEN,2
6166,Mulberry Cogeneratio,CAP_GEN_P54426,54426,2,15,FL,27.84,-81.87,GT1,EC,78,8770,0.38,0.9,0.31,137.12,3.64,,GEN,2
6167,Mulberry Cogeneratio,CAP_GEN_P54426,54426,2,15,FL,27.84,-81.87,ST1,EC,37,8770,0.38,0.9,0.15,66.75,3.64,,GEN,2
6170,Orlando Cogen LP,CAP_GEN_P54466,54466,2,15,FL,28.44,-81.41,GEN1,EC,120,8109,0.93,0.9,0.45,166.62,15.08,,GEN,2
6174,Sumas Power Plant,CAP_GEN_P54476,54476,23,22,WA,48.99,-122.27,GEN2,EC,125.5,8454,0.45,0.9,0.49,74.85,3.37,,GEN,6
6180,Ferndale Generating,CAP_GEN_P54537,54537,23,22,WA,48.82,-122.68,CT1B,EC,172,7554,0.55,0.9,0.6,247.32,10,,GEN,6
6181,Ferndale Generating,CAP_GEN_P54537,54537,23,22,WA,48.82,-122.68,ST1,EC,98,7554,0.55,0.9,0.34,231.57,10,,GEN,6
6284,Gordonsville Energy,CAP_GEN_P54844,54844,13,12,VA,38.12,-78.2,GOR1,EC,136.8,8302,0.41,0.9,0.52,130.16,3.72,,GEN,1
6285,Gordonsville Energy,CAP_GEN_P54844,54844,13,12,VA,38.12,-78.2,GOR3,EC,81.2,9633,0.41,0.9,0.36,78.48,3.72,,GEN,1
6304,Brooklyn Navy Yard C,CAP_GEN_P54914,54914,8,2,NY,40.69,-73.97,2,EC,179.97,9397,0.88,0.9,0.78,82.48,6.71,,GEN,1
6305,Brooklyn Navy Yard C,CAP_GEN_P54914,54914,8,2,NY,40.69,-73.97,4,EC,69.96,9397,0.88,0.9,0.3,32.99,6.71,,GEN,1
6306,Michigan Power LP,CAP_GEN_P54915,54915,5,5,MI,43.93,-86.42,G001,EC,128,9147,0.72,0.9,0.54,99.69,3.07,,GEN,1
6333,LSP-Cottage Grove LP,CAP_GEN_P55010,55010,3,7,MN,44.79,-92.91,CTG1,EC,154,8363,0.34,0.9,0.59,73.07,8.31,,GEN,3
6334,LSP-Cottage Grove LP,CAP_GEN_P55010,55010,3,7,MN,44.79,-92.91,STG1,EC,97,8363,0.34,0.9,0.37,45.82,11.08,,GEN,3
6335,LSP-Whitewater LP,CAP_GEN_P55011,55011,3,6,WI,42.85,-88.73,CTG1,EC,161.99,8208,0.37,0.9,0.61,78.8,10.73,,GEN,1
6336,LSP-Whitewater LP,CAP_GEN_P55011,55011,3,6,WI,42.85,-88.73,STG1,EC,98.99,8208,0.37,0.9,0.37,48.78,10.73,,GEN,1
6339,Dighton Power Plant,CAP_GEN_P55026,55026,7,1,MA,41.83,-71.12,UNT1,EC,163.4,8008,0.22,0.9,0.6,257.43,3.3,,GEN,1
6342,Mid-Georgia Cogenera,CAP_GEN_P55040,55040,15,14,GA,32.48,-83.6,CT1,EC,203,8745,0.06,0.9,0.82,125.5,2.46,,GEN,1
6343,Mid-Georgia Cogenera,CAP_GEN_P55040,55040,15,14,GA,32.48,-83.6,ST1,EC,100,8745,0.06,0.9,0.4,121.95,2.46,,GEN,1
6344,Berkshire Power,CAP_GEN_P55041,55041,7,1,MA,42.04,-72.64,GEN2,EC,229.3,7451,0.26,0.9,0.79,298.87,2.83,,GEN,1
6345,Bridgeport Energy Pr,CAP_GEN_P55042,55042,7,1,CT,41.16,-73.18,GEN1,EC,532,7098,0.54,0.9,1.75,143.63,2.21,,GEN,1
6346,Cherokee County Coge,CAP_GEN_P55043,55043,14,13,SC,35.07,-81.61,ST1,EC,86,8279,0.44,0.9,0.33,75.37,3.88,,GEN,1
6347,Pasadena Cogeneratio,CAP_GEN_P55047,55047,1,18,TX,29.72,-95.17,CTG1,EC,720,7652,0.54,0.9,2.56,184.43,2.5,,GEN,2
6387,Rhode Island State E,CAP_GEN_P55107,55107,7,1,RI,41.8,-71.51,CTG1,EC,554,7082,0.62,0.9,1.82,147.36,2.08,,GEN,1
6406,Sutter Energy Center,CAP_GEN_P55112,55112,20,23,CA,39.05,-121.69,CT01,EC,530,7685,0.2,0.9,1.89,166.3,2.12,,GEN,6
6408,Magic Valley Generat,CAP_GEN_P55123,55123,1,18,TX,26.34,-98.19,CTG2,EC,682,7338,0.49,0.9,2.32,237.22,2.4,,GEN,2
6409,Griffith Energy LLC,CAP_GEN_P55124,55124,20,21,AZ,35.05,-114.13,STG,EC,570,7262,0.52,0.9,1.92,248.54,2.01,,GEN,5
6411,Milford Power Projec,CAP_GEN_P55126,55126,7,1,CT,41.22,-73.1,CA01,EC,534.3,7322,0.7,0.9,1.82,311.29,2.77,,GEN,1
6414,Desert Basin,CAP_GEN_P55129,55129,20,21,AZ,32.9,-111.78,CTG1,EC,324,7415,0.35,0.9,1.11,198.35,2.42,,GEN,5
6416,Desert Basin,CAP_GEN_P55129,55129,20,21,AZ,32.9,-111.78,STG,EC,253,7415,0.35,0.9,0.87,309.77,2.42,,GEN,5
6417,Kendall County Gener,CAP_GEN_P55131,55131,12,5,IL,41.48,-88.25,CTG1,EC,1140,7636,0.61,0.9,4.05,192.66,2.6,,GEN,1
6418,Tenaska Gateway Gene,CAP_GEN_P55132,55132,1,18,TX,32.01,-94.62,GTG3,EC,442.9,7431,0.43,0.9,1.53,88.6,12.97,,GEN,2
6419,Tenaska Gateway Gene,CAP_GEN_P55132,55132,1,18,TX,32.01,-94.62,STG1,EC,401.97,7431,0.43,0.9,1.39,238.62,12.97,,GEN,2
6421,Rio Nogales Power Pr,CAP_GEN_P55137,55137,1,18,TX,29.59,-97.97,CTG3,EC,777,7229,0.49,0.9,2.61,790.82,10,,GEN,2
6423,Wolf Hollow I LP,CAP_GEN_P55139,55139,1,18,TX,32.33,-97.73,CTG1,EC,750.5,7528,0.31,0.9,2.62,242.12,2.35,,GEN,4
6426,Hays Energy Project,CAP_GEN_P55144,55144,1,18,TX,29.78,-97.98,U1,EC,941,7671,0.35,0.9,3.35,283.18,2.89,,GEN,2
6427,Green Country Energy,CAP_GEN_P55146,55146,17,18,OK,35.98,-95.93,STG3,EC,783,7253,0.63,0.9,2.64,130.29,2.71,,GEN,3
6429,Lake Road Generating,CAP_GEN_P55149,55149,7,1,CT,41.87,-71.89,U1,EC,828.8,7434,0.73,0.9,2.86,318.66,2.81,,GEN,1
6430,La Paloma Generating,CAP_GEN_P55151,55151,21,23,CA,35.29,-119.59,GEN2,EC,1010,7502,0.21,0.9,3.52,294.6,2.74,,GEN,6
6431,Guadalupe Generating,CAP_GEN_P55153,55153,1,18,TX,29.62,-98.14,CTG1,EC,1011.6,7092,0.59,0.9,3.33,146.07,2.16,,GEN,2
6432,Lost Pines 1 Power P,CAP_GEN_P55154,55154,1,18,TX,30.14,-97.27,CTA,EC,169,7299,0.51,0.9,0.57,80.73,4.15,,GEN,2
6434,Lost Pines 1 Power P,CAP_GEN_P55154,55154,1,18,TX,30.14,-97.27,CTB,EC,169,7299,0.51,0.9,0.57,79.75,4.15,,GEN,2
6436,Lost Pines 1 Power P,CAP_GEN_P55154,55154,1,18,TX,30.14,-97.27,ST,EC,172,7299,0.51,0.9,0.58,89.48,4.15,,GEN,2
6448,Bastrop Energy Cente,CAP_GEN_P55168,55168,1,18,TX,30.14,-97.55,2,EC,526,8004,0.46,0.9,1.95,154.44,2.01,,GEN,2
6449,Granite Ridge,CAP_GEN_P55170,55170,7,1,NH,42.9,-71.42,CT12,EC,678,7433,0.44,0.9,2.34,237.23,2.39,,GEN,1
6450,Bosque County Peakin,CAP_GEN_P55172,55172,1,18,TX,31.85,-97.35,GT-2,EC,758,7050,0.62,0.9,2.48,172.03,2.51,,GEN,2
6451,Acadia Energy Center,CAP_GEN_P55173,55173,6,18,LA,30.42,-92.41,CT11,EC,1058.2,7672,0.63,0.9,3.77,162.27,2.03,,GEN,2
6453,Eastman Cogeneration,CAP_GEN_P55176,55176,17,18,TX,32.44,-94.69,GEN1,EC,417.2,10087,0.55,0.9,1.95,168.21,2.14,,GEN,2
6454,South Point Energy C,CAP_GEN_P55177,55177,20,21,AZ,34.86,-114.53,ST1,EC,550,7995,0.39,0.9,2.04,172.6,2.04,,GEN,5
6455,Dogwood Energy Facil,CAP_GEN_P55178,55178,18,9,MO,38.79,-94.3,CT-2,EC,656.43,8137,0.33,0.9,2.48,87.54,9.65,,GEN,3
6456,Rathdrum Power LLC,CAP_GEN_P55179,55179,23,19,ID,47.78,-116.92,STG1,EC,248,7100,0.71,0.9,0.81,121.94,2.78,,GEN,5
6457,Sunrise Power LLC,CAP_GEN_P55182,55182,21,23,CA,35.21,-119.58,STG,EC,545,7133,0.54,0.9,1.8,108.41,3.97,,GEN,6
6458,Nelson Energy Center,CAP_GEN_P55183,55183,12,5,IL,41.77,-89.6,ST1,EC,586,7258,0.6,0.9,1.97,642.48,10,,GEN,1
6459,Channelview Cogenera,CAP_GEN_P55187,55187,1,18,TX,29.83,-95.12,GT2,EC,767,10642,0.77,0.9,3.79,152.73,4.46,,GEN,2
6460,Cordova Energy,CAP_GEN_P55188,55188,12,5,IL,41.71,-90.28,PT31,EC,521.2,7050,0.24,0.9,1.7,179.88,2.07,,GEN,1
3464,Silas Ray,CAP_GEN_P3559,3559,1,18,TX,25.91,-97.52,6,EC,62,10394,0.08,0.9,0.29,49.93,4.38,,GEN,2
309,Mountainview Generat,CAP_GEN_P358,358,22,23,CA,34.08,-117.24,MV3B,EC,1018,7874,0.31,0.9,3.73,138.81,2.08,,GEN,6
3487,J Robert Massengale,CAP_GEN_P3604,3604,17,18,TX,33.6,-101.84,6A,EC,74,9508,0.15,0.9,0.32,37.4,4.4,,GEN,4
3506,Sam Rayburn,CAP_GEN_P3631,3631,1,18,TX,28.89,-97.13,10,EC,37,9824,0.11,0.9,0.16,54.08,2.97,,GEN,2
3510,Sam Rayburn,CAP_GEN_P3631,3631,1,18,TX,28.89,-97.13,8,EC,146,9824,0.11,0.9,0.66,71.63,2.97,,GEN,2
321,Grayson,CAP_GEN_P377,377,22,23,CA,34.15,-118.27,2,EC,38,11605,6.00E-03,0.9,0.2,64.05,5.56,,GEN,6
323,Grayson,CAP_GEN_P377,377,22,23,CA,34.15,-118.27,8A,EC,72,11605,6.00E-03,0.9,0.38,87.64,5.56,,GEN,6
3603,Chesterfield,CAP_GEN_P3797,3797,13,12,VA,37.38,-77.38,5,C7,336,10228,0.5,0.9,2.77,745.98,8.01,,GEN,1
3605,Chesterfield,CAP_GEN_P3797,3797,13,12,VA,37.38,-77.38,6,B5,670,10176,0.5,0.9,5.51,1109.8,6.67,,GEN,1
3607,Chesterfield,CAP_GEN_P3797,3797,13,12,VA,37.38,-77.38,CT7,EC,282,7445,0.65,0.9,0.97,237.6,2.98,,GEN,1
3608,Chesterfield,CAP_GEN_P3797,3797,13,12,VA,37.38,-77.38,CW7,EC,110,7445,0.65,0.9,0.38,92.02,2.98,,GEN,1
3620,Possum Point,CAP_GEN_P3804,3804,13,12,VA,38.53,-77.28,6B,EC,340,7179,0.59,0.9,1.13,135.84,2.01,,GEN,1
3621,Possum Point,CAP_GEN_P3804,3804,13,12,VA,38.53,-77.28,6ST,EC,233,7433,0.59,0.9,0.8,240.48,2.01,,GEN,1
3635,Transalta Centralia,CAP_GEN_P3845,3845,23,22,WA,46.75,-122.86,2,C4,670,11172,0.51,0.9,6.05,1427.15,7.5,,GEN,6
335,El Centro Hybrid,CAP_GEN_P389,389,20,23,CA,32.8,-115.54,2,EC,32.5,8158,0.36,0.9,0.12,50.18,3.58,,GEN,6
336,El Centro Hybrid,CAP_GEN_P389,389,20,23,CA,32.8,-115.54,2A,EC,73,8158,0.36,0.9,0.27,133.82,3.58,,GEN,6
338,El Centro Hybrid,CAP_GEN_P389,389,20,23,CA,32.8,-115.54,31,EC,120,8158,0.36,0.9,0.45,70.25,3.58,,GEN,6
3668,John E Amos,CAP_GEN_P3935,3935,11,11,WV,38.47,-81.82,1,C7,800,9896,0.5,0.9,6.4,1457.19,7.43,,GEN,1
3754,Port Washington Gene,CAP_GEN_P4040,4040,3,6,WI,43.38,-87.86,1CT1,EC,1245.8,7050,0.61,0.9,4.08,153.11,2.05,,GEN,1
3755,South Oak Creek,CAP_GEN_P4041,4041,3,6,WI,42.84,-87.82,5,C7,242.2,10575,0.5,0.9,2.07,1083.24,8.86,,GEN,1
3757,South Oak Creek,CAP_GEN_P4041,4041,3,6,WI,42.84,-87.82,6,C7,253.8,10419,0.5,0.9,2.13,1117.62,8.76,,GEN,1
3759,South Oak Creek,CAP_GEN_P4041,4041,3,6,WI,42.84,-87.82,7,C7,306.5,10444,0.54,0.9,2.58,621.8,8.44,,GEN,1
3761,South Oak Creek,CAP_GEN_P4041,4041,3,6,WI,42.84,-87.82,8,C7,309.5,10577,0.5,0.9,2.64,601.48,8.41,,GEN,1
3775,Edgewater,CAP_GEN_P4050,4050,3,6,WI,43.71,-87.7,5,B7,405.3,10563,0.5,0.9,3.46,1727.2,7.45,,GEN,1
3805,Weston,CAP_GEN_P4078,4078,3,6,WI,44.86,-89.65,3,B1,338.7,9957,0.5,0.9,2.72,1457.26,8.01,,GEN,1
3808,Weston,CAP_GEN_P4078,4078,3,6,WI,44.86,-89.65,4,B7,549.8,9527,0.68,0.9,4.23,906.24,7.24,,GEN,1
371,Valley (CA),CAP_GEN_P408,408,22,23,CA,34.24,-118.39,6,EC,310,7383,0.31,0.9,1.06,146.94,2.09,,GEN,6
372,Valley (CA),CAP_GEN_P408,408,22,23,CA,34.24,-118.39,8,EC,209,7383,0.31,0.9,0.71,189.33,2.09,,GEN,6
3861,Dave Johnston,CAP_GEN_P4158,4158,25,19,WY,42.83,-105.77,1,C1,93,10934,0.69,0.9,0.82,380.1,10.88,,GEN,5
3862,Dave Johnston,CAP_GEN_P4158,4158,25,19,WY,42.83,-105.77,2,C1,102,10908,0.73,0.9,0.89,383.52,10.83,,GEN,5
3863,Dave Johnston,CAP_GEN_P4158,4158,25,19,WY,42.83,-105.77,3,B7,220,11306,0.64,0.9,2.01,611.01,8.69,,GEN,5
3866,Dave Johnston,CAP_GEN_P4158,4158,25,19,WY,42.83,-105.77,4,B7,330,11358,0.63,0.9,3.03,790.02,7.73,,GEN,5
3868,Naughton,CAP_GEN_P4162,4162,25,19,WY,41.75,-110.59,1,C4,156,11049,0.86,0.9,1.39,471.99,9.71,,GEN,5
3870,Naughton,CAP_GEN_P4162,4162,25,19,WY,41.75,-110.59,2,C4,201,11041,0.78,0.9,1.79,547.69,8.96,,GEN,5
385,Glenarm,CAP_GEN_P422,422,22,23,CA,34.12,-118.14,ST1,EC,84,9602,0.04,0.9,0.37,207.37,10,,GEN,6
3896,John P Madgett,CAP_GEN_P4271,4271,3,6,WI,44.3,-91.91,1,B7,389.8,11449,0.5,0.9,3.6,848.63,7.62,,GEN,1
5842,Indeck Oswego Energy,CAP_GEN_P50450,50450,9,2,NY,43.47,-76.49,GEN1,EC,36.3,9440,0.04,0.9,0.15,102.09,4.82,,GEN,1
5843,Indeck Oswego Energy,CAP_GEN_P50450,50450,9,2,NY,43.47,-76.49,GEN2,EC,14.3,9440,0.04,0.9,0.06,48.04,4.82,,GEN,1
5844,Indeck Yerkes Energy,CAP_GEN_P50451,50451,9,2,NY,42.96,-78.91,GEN1,EC,32.1,10229,0.04,0.9,0.15,106.24,4.87,,GEN,1
5845,Indeck Yerkes Energy,CAP_GEN_P50451,50451,9,2,NY,42.96,-78.91,GEN2,EC,15.2,10229,0.04,0.9,0.07,48.56,4.87,,GEN,1
5846,Indeck Corinth Energ,CAP_GEN_P50458,50458,9,2,NY,43.25,-73.81,GEN1,EC,73.1,8107,0.48,0.9,0.27,133.71,3.4,,GEN,1
5847,Indeck Corinth Energ,CAP_GEN_P50458,50458,9,2,NY,43.25,-73.81,GEN2,EC,54.1,8107,0.48,0.9,0.2,95,3.4,,GEN,1
5865,Harbor Cogen,CAP_GEN_P50541,50541,22,23,CA,33.77,-118.23,GEN1,EC,101.7,13643,0.01,0.9,0.64,172.87,3.69,,GEN,6
5870,Rosemary Power Stati,CAP_GEN_P50555,50555,13,13,NC,36.45,-77.65,GEN1,EC,165,9629,0.02,0.9,0.73,135.95,3.09,,GEN,1
5871,Frontier,CAP_GEN_P50558,50558,17,18,OK,35.44,-97.62,GT01,EC,120,8460,0.21,0.9,0.47,138.41,3.64,,GEN,3
5873,Eagle Point Power Ge,CAP_GEN_P50561,50561,10,2,NJ,39.87,-75.15,GTG1,EC,170,8762,0.08,0.9,0.69,78.01,6.04,,GEN,1
5874,Eagle Point Power Ge,CAP_GEN_P50561,50561,10,2,NJ,39.87,-75.15,STG1,EC,74,8762,0.23,0.9,0.3,47.36,6.04,,GEN,1
5889,Westwood Generation,CAP_GEN_P50611,50611,10,3,PA,40.61,-76.45,GEN1,B3,30,16277,0.51,0.9,0.39,95.25,10,,GEN,1
5917,JM Shafer Generating,CAP_GEN_P50707,50707,24,20,CO,40.09,-104.77,LMB,EC,272.1,9633,0.33,0.9,1.21,60.73,3.48,,GEN,5
5928,Sterling Power Plant,CAP_GEN_P50744,50744,9,2,NY,43.08,-75.6,GEN1,EC,54.8,9771,0.02,0.9,0.24,115.79,4.86,,GEN,1
5930,Agnews Power Plant,CAP_GEN_P50748,50748,21,23,CA,37.4,-121.92,GEN2,EC,31.7,9231,0.05,0.9,0.13,24.22,6.22,,GEN,6
5947,Panther Creek Energy,CAP_GEN_P50776,50776,10,3,PA,40.85,-75.87,GEN1,B3,80,13240,0.5,0.9,0.85,316.66,11.99,,GEN,1
6034,Doswell Energy Cente,CAP_GEN_P52019,52019,13,12,VA,37.82,-77.44,GEN3,EC,123,8674,0.67,0.9,0.49,153.57,2.39,,GEN,1
6035,Doswell Energy Cente,CAP_GEN_P52019,52019,13,12,VA,37.82,-77.44,GEN4,EC,209.4,8674,0.67,0.9,0.84,131.1,2.39,,GEN,1
6036,Doswell Energy Cente,CAP_GEN_P52019,52019,13,12,VA,37.82,-77.44,GEN6,EC,123,8674,0.67,0.9,0.49,153.57,2.39,,GEN,1
6039,Dartmouth Power Asso,CAP_GEN_P52026,52026,7,1,MA,41.67,-70.99,GEN1,EC,62.1,8968,0.05,0.9,0.25,84.58,4.56,,GEN,1
6048,Nassau Energy Corp,CAP_GEN_P52056,52056,8,2,NY,40.72,-73.58,GT1,EC,38,10918,0.63,0.9,0.19,129.06,5.36,,GEN,1
6049,Nassau Energy Corp,CAP_GEN_P52056,52056,8,2,NY,40.72,-73.58,ST1,EC,12,10918,0.63,0.9,0.06,36.01,5.36,,GEN,1
6055,Texas City Power Pla,CAP_GEN_P52088,52088,1,18,TX,29.37,-94.94,GEN4,EC,451,13547,0.4,0.9,2.84,121.01,1.98,,GEN,2
6074,C R Wing Cogen Plant,CAP_GEN_P52176,52176,1,18,TX,32.27,-101.42,GEN2,EC,212,9277,0.14,0.9,0.91,126.93,2.64,,GEN,4
518,Hayden,CAP_GEN_P525,525,24,20,CO,40.48,-107.18,1,B7,178.99,10824,0.65,0.9,1.56,512.89,9.44,,GEN,5
520,Hayden,CAP_GEN_P525,525,24,20,CO,40.48,-107.18,2,B7,261.99,10932,0.59,0.9,2.31,636.93,8.53,,GEN,5
529,McWilliams,CAP_GEN_P533,533,15,17,AL,31.4,-86.47,1,EC,40,7522,0.63,0.9,0.14,13.35,2.62,,GEN,2
530,McWilliams,CAP_GEN_P533,533,15,17,AL,31.4,-86.47,4,EC,109,7522,0.63,0.9,0.38,145.55,2.62,,GEN,2
531,McWilliams,CAP_GEN_P533,533,15,17,AL,31.4,-86.47,VAN2,EC,515,7522,0.63,0.9,1.8,217.67,2.62,,GEN,2
6084,Rensselaer Cogen,CAP_GEN_P54034,54034,9,2,NY,42.62,-73.75,GEN2,EC,80.4,9095,0.01,0.9,0.34,68.95,4.25,,GEN,1
6087,Lockport Energy Asso,CAP_GEN_P54041,54041,9,2,NY,43.16,-78.74,GEN1,EC,126.9,9218,0.02,0.9,0.54,73.54,2.9,,GEN,1
6088,Lockport Energy Asso,CAP_GEN_P54041,54041,9,2,NY,43.16,-78.74,GEN4,EC,78,9218,0.02,0.9,0.33,128.27,2.9,,GEN,1
6096,Indeck Olean Energy,CAP_GEN_P54076,54076,9,2,NY,42.08,-78.45,GEN2,EC,78.7,9174,0.07,0.9,0.33,98.87,4.15,,GEN,1
6348,Tiverton Power Plant,CAP_GEN_P55048,55048,7,1,RI,41.64,-71.17,UNT1,EC,273,7113,0.57,0.9,0.9,201.36,2.84,,GEN,1
6353,Tenaska Frontier Gen,CAP_GEN_P55062,55062,1,18,TX,30.59,-95.91,GTG3,EC,859.88,7125,0.42,0.9,2.85,114.45,10.68,,GEN,2
6354,Batesville Generatio,CAP_GEN_P55063,55063,16,17,MS,34.33,-89.92,CTG3,EC,858,7317,0.48,0.9,2.92,212.76,2.58,,GEN,2
6356,Mustang Station,CAP_GEN_P55065,55065,17,18,TX,32.97,-102.74,GEN1,EC,463.5,8048,0.43,0.9,1.73,538.46,10,,GEN,4
6359,Maine Independence S,CAP_GEN_P55068,55068,7,1,ME,44.82,-68.7,GEN1,EC,494,7652,0.06,0.9,1.75,148.92,2.13,,GEN,1
6361,Pine Bluff Energy Ce,CAP_GEN_P55075,55075,6,18,AR,34.21,-91.9,ST01,EC,192,10421,0.53,0.9,0.93,64.67,3.07,,GEN,3
6362,Red Hills Generating,CAP_GEN_P55076,55076,16,17,MS,33.37,-89.21,RHGF,B3,440,11389,0.65,0.9,4.05,856.05,7.46,,GEN,2
6363,Desert Star Energy C,CAP_GEN_P55077,55077,22,20,NV,35.78,-114.99,ED01,EC,450,7726,0.29,0.9,1.61,152.73,2.25,,GEN,5
6364,Millennium Power,CAP_GEN_P55079,55079,7,1,MA,42.11,-72.01,ST01,EC,330.1,7280,0.32,0.9,1.11,134.33,2.5,,GEN,1
6367,Crockett Cogen Proje,CAP_GEN_P55084,55084,21,23,CA,38.05,-122.21,GE1,EC,247.39,9229,0.6,0.9,1.06,252.7,11,,GEN,6
6368,Gregory Power Plant,CAP_GEN_P55086,55086,1,18,TX,27.88,-97.25,GT1B,EC,366,8987,0.15,0.9,1.53,150.93,2.37,,GEN,2
6370,Zeeland Generating S,CAP_GEN_P55087,55087,5,5,MI,42.82,-85.99,2B,EC,525.2,7335,0.65,0.9,1.79,149.64,2.06,,GEN,1
6374,Midlothian Energy Fa,CAP_GEN_P55091,55091,1,18,TX,32.43,-97.05,STK2,EC,1590,7681,0.32,0.9,5.68,289.11,2.95,,GEN,2
6379,Lamar Power Project,CAP_GEN_P55097,55097,1,18,TX,33.63,-95.59,CTG2,EC,1004,7127,0.7,0.9,3.32,141.97,2.11,,GEN,4
6382,Rumford Power LLC,CAP_GEN_P55100,55100,7,1,ME,44.53,-70.52,UNT1,EC,254,7679,0.08,0.9,0.9,203.07,2.74,,GEN,1
6385,Klamath Cogeneration,CAP_GEN_P55103,55103,23,22,OR,42.17,-121.81,CT2,EC,490,7292,0.66,0.9,1.66,147.16,2.15,,GEN,6
6462,Ontelaunee Energy Ce,CAP_GEN_P55193,55193,10,3,PA,40.42,-75.93,CTG2,EC,556.7,7050,0.81,0.9,1.82,136.69,2.11,,GEN,1
6464,Caledonia,CAP_GEN_P55197,55197,16,17,MS,33.64,-88.27,CTG3,EC,765,7050,0.59,0.9,2.5,193.24,2.75,,GEN,2
6467,Arapahoe Combustion,CAP_GEN_P55200,55200,24,20,CO,39.66,-105,UN5,EC,122.5,9104,0.19,0.9,0.51,68.35,3.52,,GEN,5
6472,Corpus Christi Energ,CAP_GEN_P55206,55206,1,18,TX,27.81,-97.42,ST1,EC,477,9856,0.44,0.9,2.18,180.66,2.08,,GEN,2
6475,Afton Generating Sta,CAP_GEN_P55210,55210,20,21,NM,32.11,-106.84,1,EC,238.6,7782,0.33,0.9,0.86,176.44,2.86,,GEN,5
6476,ANP Bellingham Energ,CAP_GEN_P55211,55211,7,1,MA,42.11,-71.45,U1,EC,541.7,7842,0.41,0.9,1.97,349.72,2.75,,GEN,1
6477,ANP Blackstone Energ,CAP_GEN_P55212,55212,7,1,MA,42.06,-71.51,U1,EC,484.3,7660,0.4,0.9,1.72,301.22,3.01,,GEN,1
6478,Odessa-Ector Power P,CAP_GEN_P55215,55215,1,18,TX,31.84,-102.32,CTG1,EC,1061.8,7083,0.65,0.9,3.49,148.19,2.15,,GEN,4
6479,Morris Cogeneration,CAP_GEN_P55216,55216,12,5,IL,41.41,-88.33,STG1,EC,194,12476,0.36,0.9,1.12,88.28,3.18,,GEN,1
6480,Los Medanos Energy C,CAP_GEN_P55217,55217,21,23,CA,38.03,-121.87,CTG2,EC,567,7545,0.65,0.9,1.99,148.88,2.01,,GEN,6
6481,Hinds Energy Facilit,CAP_GEN_P55218,55218,6,17,MS,32.37,-90.22,H02,EC,459.2,7080,0.77,0.9,1.51,534.65,10,,GEN,2
6484,Attala,CAP_GEN_P55220,55220,6,17,MS,33.01,-89.67,A02,EC,459.2,7118,0.51,0.9,1.52,150.31,2.19,,GEN,2
6485,Harry L. Oswald,CAP_GEN_P55221,55221,6,18,AR,34.59,-92.21,G2,EC,548,8531,0.09,0.9,2.17,45.23,1.98,,GEN,3
6487,Ennis Power Company,CAP_GEN_P55223,55223,1,18,TX,32.32,-96.67,ST1,EC,359.5,7342,0.35,0.9,1.22,129.68,2.54,,GEN,2
6489,Oneta Energy Center,CAP_GEN_P55225,55225,17,18,OK,36.01,-95.69,CTG1,EC,1086.4,7261,0.51,0.9,3.67,139.88,2.02,,GEN,3
6490,Freestone Energy Cen,CAP_GEN_P55226,55226,1,18,TX,31.89,-96.11,GT2,EC,1032,7164,0.74,0.9,3.44,113.34,4.34,,GEN,2
6539,New Covert Generatin,CAP_GEN_P55297,55297,11,5,MI,42.32,-86.29,1A,EC,1084.8,7316,0.71,0.9,3.69,148.48,2.44,,GEN,1
6540,Fairless Energy Cent,CAP_GEN_P55298,55298,10,3,PA,40.14,-74.74,CT1A,EC,1280,7121,0.64,0.9,4.24,156.6,1.96,,GEN,1
6541,Channel Energy Cente,CAP_GEN_P55299,55299,1,18,TX,29.71,-95.23,CTG1,EC,768,9834,0.59,0.9,3.51,161.79,2.01,,GEN,2
6544,Gila River Power Blo,CAP_GEN_P55306,55306,20,21,AZ,32.97,-112.69,CTG8,EC,515,7374,0.41,0.9,1.76,136.33,4.17,,GEN,5
6545,Fore River Generatin,CAP_GEN_P55317,55317,7,1,MA,42.24,-70.96,ST15,EC,726,7474,0.51,0.9,2.52,259.25,2.42,,GEN,1
6547,Wise County Power LL,CAP_GEN_P55320,55320,1,18,TX,33.05,-97.91,GT2,EC,735,7310,0.3,0.9,2.5,249.41,2.38,,GEN,4
6548,Chuck Lenzie Generat,CAP_GEN_P55322,55322,25,20,NV,36.38,-114.92,CTG2,EC,1170,7358,0.61,0.9,4,153.83,2.05,,GEN,5
6549,Baytown Energy Cente,CAP_GEN_P55327,55327,1,18,TX,29.77,-94.9,STG1,EC,800,8066,0.63,0.9,3,302.39,2.16,,GEN,2
6550,Hermiston Power Part,CAP_GEN_P55328,55328,23,22,OR,45.79,-119.31,CTG2,EC,615,7211,0.69,0.9,2.06,161.35,1.95,,GEN,6
6552,Delta Energy Center,CAP_GEN_P55333,55333,21,23,CA,38.01,-121.84,STG1,EC,769.1,7409,0.43,0.9,2.65,267.7,2.27,,GEN,6
6553,Holland Energy Facil,CAP_GEN_P55334,55334,4,5,IL,39.22,-88.75,CTG1,EC,605.9,7425,0.24,0.9,2.09,130.6,1.94,,GEN,1
6554,Ironwood LLC,CAP_GEN_P55337,55337,10,3,PA,40.35,-76.36,CT2,EC,712,7306,0.75,0.9,2.42,246.43,2.35,,GEN,1
6556,Dell Power Station,CAP_GEN_P55340,55340,17,18,AR,35.86,-90.02,CTG2,EC,281,7398,0.55,0.9,0.96,151.65,2.38,,GEN,3
6557,Dell Power Station,CAP_GEN_P55340,55340,17,18,AR,35.86,-90.02,STG,EC,161,7398,0.55,0.9,0.55,192.24,2.38,,GEN,3
6559,Luna Energy Facility,CAP_GEN_P55343,55343,20,21,NM,32.29,-107.78,STG1,EC,558.95,7566,0.55,0.9,1.96,78.97,6.04,,GEN,5
6560,Otay Mesa Generating,CAP_GEN_P55345,55345,22,23,CA,32.58,-116.91,1-Jan,EC,571,7266,0.29,0.9,1.93,141.3,2.06,,GEN,6
6596,Athens Generating Pl,CAP_GEN_P55405,55405,9,2,NY,42.27,-73.84,CT1,EC,984.3,7305,0.29,0.9,3.34,274,2.44,,GEN,1
6597,Effingham Energy Fac,CAP_GEN_P55406,55406,15,14,GA,32.27,-81.28,UNT1,EC,514,7176,0.52,0.9,1.71,162.72,2.07,,GEN,1
6599,Hillabee Energy Cent,CAP_GEN_P55411,55411,15,17,AL,33,-85.9,HEC1,EC,752.7,7167,0.65,0.9,2.51,231.45,2.28,,GEN,2
6600,Osprey Energy Center,CAP_GEN_P55412,55412,2,15,FL,28.05,-81.8,OEC2,EC,576,7320,0.42,0.9,1.96,157.56,1.97,,GEN,2
6604,Hot Spring Generatin,CAP_GEN_P55418,55418,6,18,AR,34.29,-92.86,CT1,EC,590.9,7308,0.51,0.9,2,646.48,10,,GEN,3
6608,Tenaska Virginia Gen,CAP_GEN_P55439,55439,13,12,VA,37.86,-78.38,STG1,EC,932.33,7165,0.61,0.9,3.1,378.84,8.39,,GEN,1
6609,Central Alabama Gene,CAP_GEN_P55440,55440,15,17,AL,32.65,-86.74,CTG2,EC,517.6,7386,0.55,0.9,1.77,171.31,8.27,,GEN,2
6610,Central Alabama Gene,CAP_GEN_P55440,55440,15,17,AL,32.65,-86.74,ST1,EC,399.4,7386,0.55,0.9,1.37,389.43,8.27,,GEN,2
6612,Magnolia Power Plant,CAP_GEN_P55451,55451,16,17,MS,34.83,-89.2,STG1,EC,918,7050,0.57,0.9,3.01,187.64,2.52,,GEN,2
6614,Red Hawk,CAP_GEN_P55455,55455,20,21,AZ,33.33,-112.84,ST1,EC,934,7320,0.56,0.9,3.18,165.83,2.17,,GEN,5
6615,McClain Energy Facil,CAP_GEN_P55457,55457,17,18,OK,35.29,-97.59,CT1,EC,171.19,7050,0.71,0.9,0.56,115.58,4.23,,GEN,3
6617,McClain Energy Facil,CAP_GEN_P55457,55457,17,18,OK,35.29,-97.59,CT2,EC,159,7050,0.71,0.9,0.52,117.64,4.23,,GEN,3
6619,McClain Energy Facil,CAP_GEN_P55457,55457,17,18,OK,35.29,-97.59,ST1,EC,160.79,7050,0.71,0.9,0.52,131.06,4.23,,GEN,3
6621,Indeck Niles Energy,CAP_GEN_P55460,55460,11,5,MI,41.86,-86.22,CT2,EC,1084,6431,0.87,0.9,3.24,1002.73,10,,GEN,1
6622,Redbud Power Plant,CAP_GEN_P55463,55463,17,18,OK,35.68,-97.22,CT01,EC,167.58,7280,0.51,0.9,0.56,93.13,7.62,,GEN,3
6624,Redbud Power Plant,CAP_GEN_P55463,55463,17,18,OK,35.68,-97.22,CT02,EC,167.58,7280,0.51,0.9,0.56,93.13,7.62,,GEN,3
5165,E B Harris Electric,CAP_GEN_P7897,7897,15,17,AL,32.38,-86.57,CT2B,EC,1314.8,7056,0.42,0.9,4.31,155.28,1.94,,GEN,2
5167,Sand Hill,CAP_GEN_P7900,7900,1,18,TX,30.21,-97.61,5C,EC,312,7956,0.42,0.9,1.15,176.67,2.56,,GEN,2
5170,Pirkey,CAP_GEN_P7902,7902,17,18,TX,32.46,-94.48,1,C4,650,10746,0.56,0.9,5.64,1502.02,7.34,,GEN,2
5184,Chattahoochee Energy,CAP_GEN_P7917,7917,15,14,GA,33.4,-85.03,2,EC,466,7050,0.75,0.9,1.52,147.03,2.17,,GEN,1
5208,Coyote Springs II,CAP_GEN_P7931,7931,23,22,OR,45.84,-119.67,1,EC,290,7050,0.62,0.9,0.95,186.98,2.8,,GEN,6
5218,Wansley Unit 9,CAP_GEN_P7946,7946,15,14,GA,33.4,-85.04,CT2,EC,478.3,7194,0.61,0.9,1.6,145.96,2.04,,GEN,1
5244,Greater Des Moines,CAP_GEN_P7985,7985,3,8,IA,41.55,-93.52,GT2,EC,479.9,7595,0.15,0.9,1.69,147.35,2.14,,GEN,3
5249,West Campus Cogenera,CAP_GEN_P7991,7991,3,6,WI,43.07,-89.42,CT2,EC,128.2,8789,0.3,0.9,0.52,54.65,3.44,,GEN,1
5253,Grays Harbor Energy,CAP_GEN_P7999,7999,23,22,WA,46.96,-123.48,CT2,EC,595,7869,0.51,0.9,2.17,148.39,1.93,,GEN,6
5254,Beatrice,CAP_GEN_P8000,8000,19,8,NE,40.33,-96.8,CT2,EC,220,8385,0.26,0.9,0.85,95.87,2.79,,GEN,3
5274,Columbia (WI),CAP_GEN_P8023,8023,3,6,WI,43.48,-89.42,1,B7,579.28,10469,0.58,0.9,4.9,2167.63,6.86,,GEN,1
5280,Columbia (WI),CAP_GEN_P8023,8023,3,6,WI,43.48,-89.42,2,B7,572.48,10534,0.58,0.9,4.87,2112.13,6.82,,GEN,1
5294,Emery Station,CAP_GEN_P8031,8031,3,8,IA,43.09,-93.29,12,EC,542.3,7071,0.47,0.9,1.78,138.63,2.07,,GEN,3
5302,Belews Creek,CAP_GEN_P8042,8042,14,13,NC,36.28,-80.06,1,C7,1110,9465,0.5,0.9,8.49,1764.75,6.85,,GEN,1
5304,Belews Creek,CAP_GEN_P8042,8042,14,13,NC,36.28,-80.06,2,C7,1110,9495,0.5,0.9,8.52,1774.41,6.83,,GEN,1
5320,Comanche (OK),CAP_GEN_P8059,8059,17,18,OK,34.54,-98.32,1G1,EC,260,9705,0.08,0.9,1.17,116.4,2.6,,GEN,3
5325,Jim Bridger,CAP_GEN_P8066,8066,25,19,WY,41.73,-108.78,1,C4,530.99,10615,0.56,0.9,4.55,1016.76,6.93,,GEN,5
5327,Jim Bridger,CAP_GEN_P8066,8066,25,19,WY,41.73,-108.78,2,C4,538.99,10648,0.59,0.9,4.64,1010.33,6.95,,GEN,5
5329,Jim Bridger,CAP_GEN_P8066,8066,25,19,WY,41.73,-108.78,3,C7,522.99,10696,0.59,0.9,4.52,1008.73,6.91,,GEN,5
5331,Jim Bridger,CAP_GEN_P8066,8066,25,19,WY,41.73,-108.78,4,C7,525.99,10692,0.6,0.9,4.54,1020.34,6.92,,GEN,5
5334,Santan,CAP_GEN_P8068,8068,20,21,AZ,33.33,-111.75,ST1,EC,1227,9203,0.2,0.9,5.25,177.48,3.28,,GEN,5
5335,Huntington,CAP_GEN_P8069,8069,25,20,UT,39.37,-111.07,1,B3,459,10498,0.66,0.9,3.89,901.12,7.28,,GEN,5
5337,Huntington,CAP_GEN_P8069,8069,25,20,UT,39.37,-111.07,2,B3,450,10487,0.64,0.9,3.81,877.29,7.38,,GEN,5
5340,Beaver,CAP_GEN_P8073,8073,23,22,OR,46.17,-123.17,6,EC,331.8,10248,0.12,0.9,1.58,65.73,2.08,,GEN,6
5341,Beaver,CAP_GEN_P8073,8073,23,22,OR,46.17,-123.17,7,EC,137,10248,0.12,0.9,0.65,169.2,2.08,,GEN,6
5345,Gavin Power_ LLC,CAP_GEN_P8102,8102,11,4,OH,38.93,-82.11,1,C7,1330,9960,0.62,0.9,10.71,2027.51,6.46,,GEN,1
5346,Gavin Power_ LLC,CAP_GEN_P8102,8102,11,4,OH,38.93,-82.11,2,C7,1361,9909,0.6,0.9,10.9,2033.86,6.45,,GEN,1
5354,Ray D Nixon,CAP_GEN_P8219,8219,24,20,CO,38.63,-104.7,1,B7,208,10537,0.67,0.9,1.77,557.47,9.08,,GEN,5
5357,Coyote,CAP_GEN_P8222,8222,3,7,ND,47.22,-101.81,1,B7,429,11535,0.67,0.9,4,940.11,7.16,,GEN,7
5361,Springerville,CAP_GEN_P8223,8223,20,21,AZ,34.31,-109.16,1,B7,381,10570,0.58,0.9,3.25,763.02,7.85,,GEN,5
5362,Springerville,CAP_GEN_P8223,8223,20,21,AZ,34.31,-109.16,2,B7,406,10506,0.68,0.9,3.45,775.9,7.8,,GEN,5
5363,Springerville,CAP_GEN_P8223,8223,20,21,AZ,34.31,-109.16,3,B7,417,10404,0.61,0.9,3.5,814.82,7.62,,GEN,5
5364,Springerville,CAP_GEN_P8223,8223,20,21,AZ,34.31,-109.16,4,B7,415,10546,0.5,0.9,3.53,810.79,7.64,,GEN,5
5366,North Valmy,CAP_GEN_P8224,8224,25,20,NV,40.88,-117.15,1,B1,254,11804,0.5,0.9,2.42,605.66,8.73,,GEN,5
5368,North Valmy,CAP_GEN_P8224,8224,25,20,NV,40.88,-117.15,2,B7,268,11636,0.5,0.9,2.52,659.99,8.39,,GEN,5
5373,Cheswick Power Plant,CAP_GEN_P8226,8226,11,3,PA,40.53,-79.79,1,C7,565,11693,0.5,0.9,5.34,985.21,6.93,,GEN,1
878,E D Edwards,CAP_GEN_P856,856,4,5,IL,40.59,-89.66,2,C1,245,10730,0.62,0.9,2.12,618.24,8.65,,GEN,1
879,E D Edwards,CAP_GEN_P856,856,4,5,IL,40.59,-89.66,3,C1,315,10671,0.6,0.9,2.71,745.78,7.94,,GEN,1
884,Grand Tower Energy C,CAP_GEN_P862,862,4,5,IL,37.65,-89.51,1,EC,511,7433,0.13,0.9,1.76,215.99,2.6,,GEN,1
897,Kincaid Generation L,CAP_GEN_P876,876,12,5,IL,39.59,-89.49,1,CX,554,11266,0.5,0.9,5.04,1085.18,6.74,,GEN,1
899,Kincaid Generation L,CAP_GEN_P876,876,12,5,IL,39.59,-89.49,2,CX,554,11026,0.5,0.9,4.94,1083.82,6.74,,GEN,1
901,Powerton,CAP_GEN_P879,879,12,5,IL,40.54,-89.67,5,C1,769,11828,0.5,0.9,7.35,1640.77,7.06,,GEN,1
902,Powerton,CAP_GEN_P879,879,12,5,IL,40.54,-89.67,6,C1,769,12113,0.5,0.9,7.53,1594.62,7.15,,GEN,1
908,Waukegan,CAP_GEN_P883,883,12,5,IL,42.38,-87.81,7,C1,328,10619,0.5,0.9,2.81,715.52,8.09,,GEN,1
909,Waukegan,CAP_GEN_P883,883,12,5,IL,42.38,-87.81,8,C1,361,11381,0.5,0.9,3.32,827.01,7.58,,GEN,1
913,Will County,CAP_GEN_P884,884,12,5,IL,41.63,-88.06,4,C1,510,10834,0.5,0.9,4.46,1006.88,6.96,,GEN,1
916,Joppa Steam,CAP_GEN_P887,887,4,5,IL,37.2,-88.85,1,C1,158,11341,0.58,0.9,1.44,486.7,9.68,,GEN,1
918,Joppa Steam,CAP_GEN_P887,887,4,5,IL,37.2,-88.85,2,C1,158,11258,0.54,0.9,1.43,484.69,9.7,,GEN,1
920,Joppa Steam,CAP_GEN_P887,887,4,5,IL,37.2,-88.85,3,C1,158,11308,0.5,0.9,1.44,491.93,9.63,,GEN,1
922,Joppa Steam,CAP_GEN_P887,887,4,5,IL,37.2,-88.85,4,C1,158,11143,0.55,0.9,1.42,472.85,9.82,,GEN,1
924,Joppa Steam,CAP_GEN_P887,887,4,5,IL,37.2,-88.85,5,C1,158,11349,0.5,0.9,1.45,491.96,9.63,,GEN,1
926,Joppa Steam,CAP_GEN_P887,887,4,5,IL,37.2,-88.85,6,C1,158,11340,0.5,0.9,1.44,471.31,9.83,,GEN,1
928,Baldwin Energy Compl,CAP_GEN_P889,889,4,5,IL,38.2,-89.85,1,B7,576,10460,0.63,0.9,4.87,1007.57,6.93,,GEN,1
6493,Jack County,CAP_GEN_P55230,55230,1,18,TX,33.1,-97.95,CT2,EC,1241,7411,0.32,0.9,4.27,139.36,1.98,,GEN,4
6494,Liberty Electric Pow,CAP_GEN_P55231,55231,10,3,PA,39.86,-75.33,GTG1,EC,562,7187,0.82,0.9,1.87,151.36,2.01,,GEN,1
6501,Red Oak Power LLC,CAP_GEN_P55239,55239,10,2,NJ,40.44,-74.34,2,EC,775.9,7172,0.56,0.9,2.58,172.55,2.24,,GEN,1
6502,Hog Bayou Energy Cen,CAP_GEN_P55241,55241,15,17,AL,30.74,-88.05,CT01,EC,230,7536,0.57,0.9,0.8,205.24,2.8,,GEN,2
6503,Santa Rosa Energy Ce,CAP_GEN_P55242,55242,15,15,FL,30.56,-87.11,ST01,EC,235.9,7627,0.53,0.9,0.83,95.18,2.81,,GEN,2
6513,Whiting Clean Energy,CAP_GEN_P55259,55259,4,5,IN,41.67,-87.47,CT1,EC,513,8982,0.58,0.9,2.14,152.05,1.99,,GEN,1
6519,TVA Southaven Combin,CAP_GEN_P55269,55269,16,17,MS,34.99,-90.03,CTG3,EC,780,7050,0.56,0.9,2.55,172.76,5.48,,GEN,2
6521,Jackson Generating S,CAP_GEN_P55270,55270,5,5,MI,42.24,-84.37,LM5,EC,535.5,8152,0.41,0.9,2.03,46.56,1.96,,GEN,1
6522,Tenaska Lindsay Hill,CAP_GEN_P55271,55271,15,17,AL,32.65,-86.73,GTG3,EC,455.97,7515,0.22,0.9,1.59,146.31,6.55,,GEN,2
6523,Tenaska Lindsay Hill,CAP_GEN_P55271,55271,15,17,AL,32.65,-86.73,STG1,EC,391.99,7515,0.22,0.9,1.37,383.58,6.55,,GEN,2
6527,Arlington Valley Ene,CAP_GEN_P55282,55282,20,21,AZ,33.34,-112.89,STG1,EC,580,7353,0.45,0.9,1.98,230.99,1.99,,GEN,5
6528,Front Range Power Pl,CAP_GEN_P55283,55283,24,20,CO,38.62,-104.7,1,EC,460,7505,0.57,0.9,1.6,137.17,2.19,,GEN,5
6534,Decatur Energy Cente,CAP_GEN_P55292,55292,16,17,AL,34.62,-87.02,CTG1,EC,800,7816,0.29,0.9,2.9,165.56,2.29,,GEN,2
6535,Morgan Energy Center,CAP_GEN_P55293,55293,16,17,AL,34.64,-87.06,CTG1,EC,749,8056,0.59,0.9,2.8,166.61,2.29,,GEN,2
6536,Westbrook Energy Cen,CAP_GEN_P55294,55294,7,1,ME,43.65,-70.37,STG3,EC,534.8,7340,0.27,0.9,1.82,174.43,2.1,,GEN,1
6537,Blythe Energy Inc,CAP_GEN_P55295,55295,22,23,CA,33.61,-114.68,CT1,EC,514,7402,0.43,0.9,1.77,144.29,2.11,,GEN,6
6564,Dresden Energy Facil,CAP_GEN_P55350,55350,11,4,OH,40.09,-82.02,1,EC,540,7050,0.82,0.9,1.77,167.59,2.05,,GEN,1
6567,Jack Fusco Energy Ce,CAP_GEN_P55357,55357,6,18,TX,29.47,-95.62,STG1,EC,525,7449,0.56,0.9,1.81,181.41,2.06,,GEN,2
6568,Cottonwood Energy Pr,CAP_GEN_P55358,55358,6,18,TX,30.25,-93.73,CT1,EC,1145.2,7352,0.62,0.9,3.91,197.82,2.46,,GEN,2
6569,Sugar Creek Power,CAP_GEN_P55364,55364,4,5,IN,39.39,-87.51,CT02,EC,549,7063,0.67,0.9,1.8,148.78,2.05,,GEN,1
6575,Harquahala Generatin,CAP_GEN_P55372,55372,20,21,AZ,33.47,-113.11,CTG1,EC,1042.9,7137,0.14,0.9,3.46,223.72,2.42,,GEN,5
6576,Astoria Energy,CAP_GEN_P55375,55375,8,2,NY,40.78,-73.89,CT2,EC,330,7297,0.6,0.9,1.12,9999,9999,,GEN,1
6577,Astoria Energy,CAP_GEN_P55375,55375,8,2,NY,40.78,-73.89,ST1,EC,228,7297,0.6,0.9,0.77,9999,9999,,GEN,1
6579,Union Power Station,CAP_GEN_P55380,55380,6,18,AR,33.29,-92.58,CTG1,EC,2015.6,7280,0.57,0.9,6.82,150.68,3.95,,GEN,3
6581,Thomas A Smith Energ,CAP_GEN_P55382,55382,15,14,GA,34.7,-84.91,2GT2,EC,1344,7429,0.58,0.9,4.64,190.8,2.39,,GEN,1
6582,Columbia Energy Cent,CAP_GEN_P55386,55386,14,13,SC,33.87,-81.01,CT1,EC,151.5,7050,0.51,0.9,0.49,155.67,2.29,,GEN,1
6583,Columbia Energy Cent,CAP_GEN_P55386,55386,14,13,SC,33.87,-81.01,CT2,EC,151.5,7050,0.51,0.9,0.49,155.67,2.29,,GEN,1
6584,Columbia Energy Cent,CAP_GEN_P55386,55386,14,13,SC,33.87,-81.01,ST1,EC,240,7050,0.51,0.9,0.78,108.56,2.29,,GEN,1
6587,Metcalf Energy Cente,CAP_GEN_P55393,55393,21,23,CA,37.22,-121.74,CTG2,EC,546.1,7670,0.45,0.9,1.94,157.46,2.04,,GEN,6
6590,Washington Energy Fa,CAP_GEN_P55397,55397,11,4,OH,39.58,-81.65,CT2,EC,661,7165,0.79,0.9,2.2,154.52,1.93,,GEN,1
6592,Elk Hills Power LLC,CAP_GEN_P55400,55400,21,23,CA,35.28,-119.47,STG,EC,525,7150,0.8,0.9,1.74,194.23,2.04,,GEN,6
6595,Carville Energy LLC,CAP_GEN_P55404,55404,6,18,LA,30.22,-91.06,CTG1,EC,521,8413,0.59,0.9,2.03,167.02,2.14,,GEN,2
6626,Redbud Power Plant,CAP_GEN_P55463,55463,17,18,OK,35.68,-97.22,CT03,EC,166.49,7280,0.51,0.9,0.56,90.68,7.62,,GEN,3
6628,Redbud Power Plant,CAP_GEN_P55463,55463,17,18,OK,35.68,-97.22,CT04,EC,166.49,7280,0.51,0.9,0.56,94.35,7.62,,GEN,3
6630,Redbud Power Plant,CAP_GEN_P55463,55463,17,18,OK,35.68,-97.22,ST01,EC,134.39,7280,0.51,0.9,0.45,182.58,7.62,,GEN,3
6632,Redbud Power Plant,CAP_GEN_P55463,55463,17,18,OK,35.68,-97.22,ST02,EC,134.39,7280,0.51,0.9,0.45,180.13,7.62,,GEN,3
6634,Redbud Power Plant,CAP_GEN_P55463,55463,17,18,OK,35.68,-97.22,ST03,EC,133.49,7280,0.51,0.9,0.45,181.36,7.62,,GEN,3
6636,Redbud Power Plant,CAP_GEN_P55463,55463,17,18,OK,35.68,-97.22,ST04,EC,133.49,7280,0.51,0.9,0.45,181.36,7.62,,GEN,3
6639,Deer Park Energy Cen,CAP_GEN_P55464,55464,1,18,TX,29.71,-95.13,CTG2,EC,1133,10445,0.71,0.9,5.5,165.52,2.08,,GEN,2
6640,Ouachita,CAP_GEN_P55467,55467,6,18,LA,32.7,-92.06,STG2,EC,719.2,7304,0.54,0.9,2.44,129.37,2.74,,GEN,2
6643,Wygen 1,CAP_GEN_P55479,55479,24,19,WY,44.28,-105.38,1,B7,84.99,12048,0.87,0.9,0.82,209.13,10,,GEN,5
6645,Forney Energy Center,CAP_GEN_P55480,55480,1,18,TX,32.75,-96.49,ST1,EC,1770,7274,0.6,0.9,5.99,401.07,2.16,,GEN,2
6646,Mesquite Generating,CAP_GEN_P55481,55481,20,21,AZ,33.34,-112.86,GT3,EC,624,7282,0.63,0.9,2.11,134.92,2.05,,GEN,5
6647,Goldendale Generatin,CAP_GEN_P55482,55482,23,22,WA,45.81,-120.83,G2,EC,263.7,7050,0.64,0.9,0.86,134.51,2.76,,GEN,6
6653,Kiamichi Energy Faci,CAP_GEN_P55501,55501,1,18,OK,34.68,-95.93,CTG1,EC,1229.52,7574,0.43,0.9,4.33,136.61,5.84,,GEN,3
6654,Lawrenceburg Power_,CAP_GEN_P55502,55502,11,5,IN,39.09,-84.86,2100,EC,1190,7111,0.72,0.9,3.93,139.83,2.07,,GEN,1
6655,Waterford Power_ LLC,CAP_GEN_P55503,55503,11,4,OH,39.53,-81.71,ST1,EC,866,7050,0.77,0.9,2.84,344.23,2.23,,GEN,1
6662,Apex Generating Stat,CAP_GEN_P55514,55514,25,20,NV,36.41,-114.96,STG1,EC,524.4,7118,0.55,0.9,1.73,191.9,2.17,,GEN,5
6757,Fremont Energy Cente,CAP_GEN_P55701,55701,11,4,OH,41.37,-83.16,CT01,EC,685.1,10027,0.43,0.9,3.19,158.08,2.01,,GEN,1
6758,Choctaw County,CAP_GEN_P55706,55706,16,17,MS,33.28,-89.42,CTG1,EC,781,7050,0.62,0.9,2.56,156.22,2.24,,GEN,2
6760,Allegheny Energy Uni,CAP_GEN_P55710,55710,11,3,PA,40.54,-79.76,UNT5,EC,509,7083,0.86,0.9,1.67,162.74,2.11,,GEN,1
6761,Magnet Cove,CAP_GEN_P55714,55714,6,18,AR,34.43,-92.83,GT1,EC,641.5,7050,0.26,0.9,2.1,178.97,1.92,,GEN,3
6767,Hanging Rock Energy,CAP_GEN_P55736,55736,11,4,OH,38.57,-82.78,1GT1,EC,1365,7154,0.75,0.9,4.54,190.92,2.38,,GEN,1
6774,Los Esteros Critical,CAP_GEN_P55748,55748,21,23,CA,37.42,-121.93,CAG5,EC,306.1,8517,0.1,0.9,1.21,205.64,2.04,,GEN,6
6775,Hardin Generator Pro,CAP_GEN_P55749,55749,23,19,MT,45.75,-107.6,UNT1,B7,107,13114,0.5,0.9,1.13,392.94,10.75,,GEN,7
6799,Marcus Hook Energy L,CAP_GEN_P55801,55801,10,3,PA,39.8,-75.42,CT1A,EC,841.7,7459,0.68,0.9,2.92,182.13,2.23,,GEN,1
6810,Frederickson Power L,CAP_GEN_P55818,55818,23,22,WA,47.08,-122.36,FICT,EC,245.98,7051,0.46,0.9,0.8,101.92,5.57,,GEN,6
6811,Curtis H Stanton Ene,CAP_GEN_P55821,55821,2,15,FL,28.48,-81.16,A,EC,376,7398,0.32,0.9,1.29,136.29,9.67,,GEN,2
6812,Curtis H Stanton Ene,CAP_GEN_P55821,55821,2,15,FL,28.48,-81.16,C,EC,280.99,7398,0.32,0.9,0.96,189.3,9.67,,GEN,2
6814,Rocky Mountain Energ,CAP_GEN_P55835,55835,24,20,CO,40.09,-104.59,CTG2,EC,580,7848,0.45,0.9,2.11,133.8,1.96,,GEN,5
6816,Silverhawk,CAP_GEN_P55841,55841,25,20,NV,36.4,-114.96,CT2,EC,560,7743,0.38,0.9,2.01,108.81,4.09,,GEN,5
6820,Prairie State Genera,CAP_GEN_P55856,55856,4,5,IL,38.27,-89.66,PC1,C7,814.96,9459,0.79,0.9,6.23,1558.09,7.27,,GEN,1
6829,Prairie State Genera,CAP_GEN_P55856,55856,4,5,IL,38.27,-89.66,PC2,C7,814.96,9470,0.83,0.9,6.24,7873.22,9999,,GEN,1
6847,Jasper,CAP_GEN_P55927,55927,14,13,SC,32.35,-81.12,CT1,EC,478,7413,0.66,0.9,1.64,153.43,2.17,,GEN,1
6848,Jasper,CAP_GEN_P55927,55927,14,13,SC,32.35,-81.12,ST1,EC,385,7413,0.66,0.9,1.32,380.68,2.17,,GEN,1
7458,Bear Garden,CAP_GEN_P56807,56807,13,12,VA,37.69,-78.28,1A,EC,380,7050,0.65,0.9,1.24,146.71,1.98,,GEN,1
7459,Bear Garden,CAP_GEN_P56807,56807,13,12,VA,37.69,-78.28,1C,EC,242,7050,0.65,0.9,0.79,225.85,1.98,,GEN,1
7460,Virginia City Hybrid,CAP_GEN_P56808,56808,11,12,VA,36.91,-82.33,1,B3,610,10583,0.5,0.9,5.22,1002.24,7.04,,GEN,1
7479,OREG 1 Inc,CAP_GEN_P56833,56833,19,19,MT,48.21,-104.39,CS10,EC,20,8977,0.73,0.9,0.08,9999,9999,,GEN,7
7490,CPV St Charles Energ,CAP_GEN_P56846,56846,10,10,MD,38.56,-76.89,GTG2,EC,733.5,7123,0.61,0.9,2.43,758.32,10,,GEN,1
7521,OREG 2 Inc,CAP_GEN_P56880,56880,19,19,MT,48.21,-104.39,CS12,EC,20,8992,0.62,0.9,0.08,9999,9999,,GEN,7
7564,CPV Valley Energy Ce,CAP_GEN_P56940,56940,9,2,NY,41.41,-74.43,CTG1,EC,366.2,7050,0.63,0.9,1.2,449.46,10,,GEN,1
7565,CPV Valley Energy Ce,CAP_GEN_P56940,56940,9,2,NY,41.41,-74.43,STG,EC,274.2,7050,0.63,0.9,0.89,358.64,10,,GEN,1
7586,West Deptford Energy,CAP_GEN_P56963,56963,10,2,NJ,39.84,-75.22,E102,EC,734.1,7181,0.51,0.9,2.45,9999,9999,,GEN,1
7620,Pueblo Airport Gener,CAP_GEN_P56998,56998,24,20,CO,38.32,-104.52,4,EC,188,8093,0.6,0.9,0.7,85.32,3.9,,GEN,5
7648,Langley Gulch Power,CAP_GEN_P57028,57028,25,19,ID,43.9,-116.82,STG,EC,301.3,7050,0.55,0.9,0.98,161.28,2.61,,GEN,5
7656,Ratcliffe,CAP_GEN_P57037,57037,15,17,MS,32.65,-88.76,1A,EC,675.6,7348,0.64,0.9,2.31,713.94,10,,GEN,2
7715,OREG 4 Peetz,CAP_GEN_P57134,57134,24,20,CO,40.99,-102.85,1,EC,3,8988,0.44,0.9,0.01,9999,9999,,GEN,5
7738,Glen Ullin Station 6,CAP_GEN_P57172,57172,3,7,ND,46.82,-101.75,1,EC,5.3,8983,0.89,0.9,0.02,9999,9999,,GEN,7
7744,Cricket Valley Energ,CAP_GEN_P57185,57185,8,2,NY,41.67,-73.58,U002,EC,1016.1,7050,0.53,0.9,3.33,958.23,10,,GEN,1
7816,OREG 3 Inc,CAP_GEN_P57281,57281,3,7,MN,43.76,-94.75,CS13,EC,3.3,8980,1,0.9,0.01,9999,9999,,GEN,3
7867,Garrison Energy Cent,CAP_GEN_P57349,57349,10,10,DE,39.18,-75.49,STG2,EC,309,7100,0.39,0.9,1.02,393.87,10,,GEN,1
8496,Brunswick County Pow,CAP_GEN_P58260,58260,13,12,VA,36.76,-77.71,CT03,EC,1371.1,7433,0.7,0.9,4.74,1178.55,10,,GEN,1
8619,Hamilton Liberty,CAP_GEN_P58420,58420,10,3,PA,41.76,-76.39,GEN1,EC,765,7050,0.78,0.9,2.5,781.92,10,,GEN,1
8623,Hamilton Patriot Gen,CAP_GEN_P58426,58426,10,3,PA,41.18,-76.83,GEN1,EC,795,7050,0.77,0.9,2.6,804.07,10,,GEN,1
8624,Lansing BWL REO Town,CAP_GEN_P58427,58427,5,5,MI,42.72,-84.55,ST,EC,74.9,7050,0.81,0.9,0.24,190.8,10,,GEN,1
8669,LEPA Unit No. 1,CAP_GEN_P58478,58478,6,18,LA,29.69,-91.19,LEPA2,EC,66,8284,0.44,0.9,0.25,173.86,10,,GEN,2
8692,Carty Generating Sta,CAP_GEN_P58503,58503,23,22,OR,45.69,-119.81,GEN1,EC,416.3,7050,0.74,0.9,1.36,496.08,10,,GEN,6
8738,Mesquite Generating,CAP_GEN_P58557,58557,20,21,AZ,33.34,-112.86,ST1,EC,620.3,7385,0.51,0.9,2.13,670.26,10,,GEN,5
8847,L V Sutton Combined,CAP_GEN_P58697,58697,14,13,NC,34.28,-77.98,CA1,EC,266,7197,0.7,0.9,0.89,350.17,10,,GEN,1
8849,L V Sutton Combined,CAP_GEN_P58697,58697,14,13,NC,34.28,-77.98,CT1,EC,341,7197,0.7,0.9,1.14,425.3,10,,GEN,1
8978,Rentech Nitrogen Pas,CAP_GEN_P58870,58870,1,18,TX,29.73,-95.19,MG202,EC,14,8968,0.42,0.9,0.05,51.77,10,,GEN,2
73,Platte,CAP_GEN_P59,59,19,8,NE,40.85,-98.34,1,C1,100,11763,0.5,0.9,0.95,389.93,10.79,,GEN,3
9085,Potomac Energy Cente,CAP_GEN_P59004,59004,13,12,VA,39.05,-77.54,GEN3,EC,766,7050,0.69,0.9,2.51,782.67,10,,GEN,1
9155,Holland Energy Park,CAP_GEN_P59093,59093,5,5,MI,42.79,-86.09,12,EC,127.1,7176,0.7,0.9,0.42,193.47,10,,GEN,1
9262,Wildcat Point Genera,CAP_GEN_P59220,59220,10,10,MD,39.71,-76.16,CT1,EC,977,7125,0.35,0.9,3.23,932.04,10,,GEN,1
9347,Kings Mountain Energ,CAP_GEN_P59325,59325,14,13,NC,35.2,-81.36,KMEC2,EC,486,7050,0.67,0.9,1.59,558.18,10,,GEN,1
9348,Middletown Energy Ce,CAP_GEN_P59326,59326,11,4,OH,39.46,-84.34,MEC1,EC,463.1,7050,0.78,0.9,1.51,538.1,10,,GEN,1
3964,White Bluff,CAP_GEN_P6009,6009,6,18,AR,34.42,-92.14,1,C1,817.67,10210,0.5,0.9,6.75,1553.14,7.23,,GEN,3
3969,White Bluff,CAP_GEN_P6009,6009,6,18,AR,34.42,-92.14,2,C1,822.67,10081,0.5,0.9,6.7,1641.76,7.06,,GEN,3
10007,Colorado Bend II,CAP_GEN_P60122,60122,1,18,TX,29.28,-96.06,CT7,EC,1142.7,7050,0.54,0.9,3.74,1040.24,10,,GEN,2
3983,Newton,CAP_GEN_P6017,6017,4,5,IL,38.93,-88.27,1,CX,595,10638,0.59,0.9,5.11,2180.8,6.72,,GEN,1
3986,East Bend,CAP_GEN_P6018,6018,11,16,KY,38.9,-84.85,2,C7,600,10931,0.57,0.9,5.3,1035.19,6.87,,GEN,1
3987,W H Zimmer,CAP_GEN_P6019,6019,11,4,OH,38.86,-84.22,ST1,C7,1305,9744,0.52,0.9,10.28,2018.65,6.48,,GEN,1
609,Brandon Shores,CAP_GEN_P602,602,10,10,MD,39.18,-76.53,1,B5,635,11848,0.5,0.9,6.08,1044.52,6.81,,GEN,1
611,Brandon Shores,CAP_GEN_P602,602,10,10,MD,39.18,-76.53,2,B5,638,11635,0.5,0.9,6,1065.55,6.77,,GEN,1
3989,Craig (CO),CAP_GEN_P6021,6021,24,20,CO,40.46,-107.59,1,B3,426.99,10359,0.67,0.9,3.57,865.57,7.43,,GEN,5
3994,Craig (CO),CAP_GEN_P6021,6021,24,20,CO,40.46,-107.59,2,B5,409.99,10422,0.67,0.9,3.45,875.21,7.39,,GEN,5
3999,Craig (CO),CAP_GEN_P6021,6021,24,20,CO,40.46,-107.59,3,B7,448,10181,0.64,0.9,3.68,891.85,7.33,,GEN,5
4006,Coal Creek,CAP_GEN_P6030,6030,3,7,ND,47.37,-101.15,1,C4,565.1,9958,0.91,0.9,4.55,1076.96,6.74,,GEN,7
4007,Coal Creek,CAP_GEN_P6030,6030,3,7,ND,47.37,-101.15,2,C4,579.9,9910,0.87,0.9,4.64,1098.89,6.71,,GEN,7
10136,Keys Energy Center,CAP_GEN_P60302,60302,10,10,MD,38.69,-76.82,11,EC,761,7104,0.71,0.9,2.51,778.95,10,,GEN,1
4013,Belle River,CAP_GEN_P6034,6034,5,5,MI,42.77,-82.49,ST1,C1,634.99,10623,0.53,0.9,5.45,1118.1,6.65,,GEN,1
4015,Belle River,CAP_GEN_P6034,6034,5,5,MI,42.77,-82.49,ST2,C1,634.99,10528,0.58,0.9,5.4,1137.62,6.61,,GEN,1
10174,Okeechobee Clean Ene,CAP_GEN_P60345,60345,2,15,FL,27.63,-80.79,1ST,EC,1723.1,7050,0.6,0.9,5.65,1371.42,10,,GEN,2
10184,South Field Energy,CAP_GEN_P60356,60356,11,4,OH,40.63,-80.67,SFCT1,EC,1210.4,6431,0.87,0.9,3.62,1082.46,10,,GEN,1
4087,Nearman Creek,CAP_GEN_P6064,6064,18,9,KS,39.16,-94.69,1,HA,243,11165,0.5,0.9,2.19,625.73,8.6,,GEN,3
4090,Iatan,CAP_GEN_P6065,6065,18,9,MO,39.44,-94.98,1,B5,703,9715,0.52,0.9,5.52,1496.76,7.35,,GEN,3
4099,Iatan,CAP_GEN_P6065,6065,18,9,MO,39.44,-94.98,2,B5,876.98,9485,0.67,0.9,6.72,1575.35,7.19,,GEN,3
4104,Jeffrey Energy Cente,CAP_GEN_P6068,6068,18,9,KS,39.28,-96.11,1,C7,669.59,11334,0.5,0.9,6.13,3070.75,7.27,,GEN,3
4113,Jeffrey Energy Cente,CAP_GEN_P6068,6068,18,9,KS,39.28,-96.11,2,C4,671.69,11457,0.5,0.9,6.22,3109.73,7.23,,GEN,3
4122,Jeffrey Energy Cente,CAP_GEN_P6068,6068,18,9,KS,39.28,-96.11,3,C4,669.29,11613,0.5,0.9,6.28,1524.04,7.35,,GEN,3
4128,Trimble County,CAP_GEN_P6071,6071,16,16,KY,38.58,-85.41,1,B5,510.99,9962,0.71,0.9,4.11,945.5,7.15,,GEN,1
4132,Trimble County,CAP_GEN_P6071,6071,16,16,KY,38.58,-85.41,2,B5,731.99,9688,0.74,0.9,5.73,1077.04,6.76,,GEN,1
4139,Victor J Daniel Jr,CAP_GEN_P6073,6073,15,17,MS,30.53,-88.55,1,C4,502,11348,0.5,0.9,4.6,1926.17,7.09,,GEN,2
4143,Victor J Daniel Jr,CAP_GEN_P6073,6073,15,17,MS,30.53,-88.55,2,C4,502,11329,0.5,0.9,4.59,1802.12,7.3,,GEN,2
4147,Victor J Daniel Jr,CAP_GEN_P6073,6073,15,17,MS,30.53,-88.55,3ST,EC,1097.9,7050,0.84,0.9,3.6,167.59,2.14,,GEN,2
4154,Colstrip,CAP_GEN_P6076,6076,23,19,MT,45.88,-106.61,3,H4,740,10838,0.73,0.9,6.48,1589.15,7.16,,GEN,7
4159,Colstrip,CAP_GEN_P6076,6076,23,19,MT,45.88,-106.61,4,H4,740,10913,0.71,0.9,6.53,7873.22,9999,,GEN,7
10555,Gila River Power Blo,CAP_GEN_P60768,60768,20,21,AZ,32.97,-112.69,CTG4,EC,515,7384,0.46,0.9,1.76,583.17,10,,GEN,5
4164,Gerald Gentleman,CAP_GEN_P6077,6077,19,8,NE,41.08,-101.14,1,B1,665,10011,0.69,0.9,5.38,1125.18,6.64,,GEN,3
4165,Gerald Gentleman,CAP_GEN_P6077,6077,19,8,NE,41.08,-101.14,2,B1,700,10048,0.61,0.9,5.68,1494.14,7.35,,GEN,3
4175,Stony Brook,CAP_GEN_P6081,6081,7,1,MA,42.19,-72.51,CA1,EC,95.99,9687,0.02,0.9,0.43,108.69,7.35,,GEN,1
6663,Fayette Energy Facil,CAP_GEN_P55516,55516,11,3,PA,39.85,-79.91,CTG1,EC,667.6,7055,0.79,0.9,2.19,155.73,1.92,,GEN,1
6665,High Desert Power Pl,CAP_GEN_P55518,55518,22,23,CA,34.59,-117.36,CTG2,EC,804.1,7524,0.43,0.9,2.81,164.03,2.27,,GEN,6
6667,York Energy Center,CAP_GEN_P55524,55524,10,3,PA,39.73,-76.3,CTG1,EC,1372.7,7332,0.62,0.9,4.68,109.69,1.97,,GEN,1
6675,Hidalgo Energy Cente,CAP_GEN_P55545,55545,1,18,TX,26.34,-98.17,CTG1,EC,470,7493,0.55,0.9,1.63,117.73,4.26,,GEN,2
6729,Perryville Power Sta,CAP_GEN_P55620,55620,6,18,LA,32.69,-92.01,CT-1,EC,526.3,7224,0.57,0.9,1.76,165.13,1.92,,GEN,2
6735,Riverside Energy Cen,CAP_GEN_P55641,55641,3,6,WI,42.58,-89.03,CTG1,EC,552.7,7286,0.56,0.9,1.87,147.6,1.97,,GEN,1
6742,Pastoria Energy Faci,CAP_GEN_P55656,55656,22,23,CA,34.95,-118.84,CT01,EC,780,7084,0.6,0.9,2.57,160.87,2.3,,GEN,6
6743,Newington,CAP_GEN_P55661,55661,7,1,NH,43.1,-70.8,GT-1,EC,328.8,7495,0.23,0.9,1.14,144.07,2.1,,GEN,1
6744,Newington,CAP_GEN_P55661,55661,7,1,NH,43.1,-70.8,ST,EC,231.7,7495,0.14,0.9,0.8,209.47,2.1,,GEN,1
6745,Chehalis Generating,CAP_GEN_P55662,55662,23,22,WA,46.62,-122.91,CT2,EC,477,7465,0.49,0.9,1.65,156.4,2.14,,GEN,6
6746,Harrison County Powe,CAP_GEN_P55664,55664,17,18,TX,32.39,-94.43,ST-1,EC,514.38,7325,0.5,0.9,1.75,130.76,6.21,,GEN,2
6747,Lower Mount Bethel E,CAP_GEN_P55667,55667,10,3,PA,40.8,-75.1,G2,EC,601.6,7240,0.63,0.9,2.02,155.99,2.04,,GEN,1
6751,Higgins Generating S,CAP_GEN_P55687,55687,25,20,NV,35.61,-115.35,A02,EC,550,7681,0.46,0.9,1.96,141.15,2.04,,GEN,5
6752,Bethlehem Power Plan,CAP_GEN_P55690,55690,10,3,PA,40.61,-75.31,CTG3,EC,1134,8092,0.35,0.9,4.27,139.66,2.18,,GEN,1
6753,Quantum Choctaw Powe,CAP_GEN_P55694,55694,16,17,MS,33.37,-89.2,CT1,EC,710,7153,0.48,0.9,2.36,222.89,2.37,,GEN,2
6756,Mint Farm Generating,CAP_GEN_P55700,55700,23,22,WA,46.13,-122.98,CTG1,EC,270,7404,0.57,0.9,0.93,185.04,2.66,,GEN,6
8026,Algonquin Power Sang,CAP_GEN_P57564,57564,21,23,CA,36.68,-119.55,CTG,EC,61.5,7300,0.21,0.9,0.2,136.2,5.23,,GEN,6
8093,Astoria Energy II,CAP_GEN_P57664,57664,8,2,NY,40.78,-73.89,CT4,EC,312,7430,0.54,0.9,1.07,145.64,2.08,,GEN,1
8094,Astoria Energy II,CAP_GEN_P57664,57664,8,2,NY,40.78,-73.89,ST2,EC,228,7430,0.54,0.9,0.78,212.86,2.08,,GEN,1
8111,Goodsprings Waste He,CAP_GEN_P57684,57684,25,20,NV,35.8,-115.41,HR1,EC,6.5,8980,0.47,0.9,0.02,27.46,10,,GEN,5
8122,Cheyenne Prairie Gen,CAP_GEN_P57703,57703,24,19,WY,41.12,-104.72,01B,EC,94,7753,0.31,0.9,0.33,224.8,10,,GEN,5
8197,St Joseph Energy Cen,CAP_GEN_P57794,57794,11,5,IN,41.69,-86.48,CT2,EC,715,7050,0.77,0.9,2.34,744.28,10,,GEN,1
8232,Woodbridge Energy Ce,CAP_GEN_P57839,57839,10,2,NJ,40.51,-74.31,CT001,EC,726.3,7050,0.7,0.9,2.38,752.87,10,,GEN,1
8236,Wabash Valley Power,CAP_GEN_P57842,57842,4,5,IN,39.53,-87.42,1A,IG,138,11618,0.05,0.9,1.29,206.89,10,,GEN,1
8291,El Segundo Energy Ce,CAP_GEN_P57901,57901,22,23,CA,33.91,-118.42,5,EC,510,8647,0.15,0.9,2.05,9999,9999,,GEN,6
8331,Lodi Energy Center,CAP_GEN_P57978,57978,21,23,CA,38.08,-121.38,ST1,EC,257,7102,0.49,0.9,0.84,116.56,2.59,,GEN,6
8353,Panda Temple Power S,CAP_GEN_P58001,58001,1,18,TX,31.05,-97.31,CTG-1,EC,1524,7264,0.36,0.9,5.15,9999,9999,,GEN,2
8357,Panda Sherman Power,CAP_GEN_P58005,58005,1,18,TX,33.58,-96.61,CTG-2,EC,685,7216,0.45,0.9,2.3,9999,9999,,GEN,4
8397,Newark Energy Center,CAP_GEN_P58079,58079,10,2,NJ,40.7,-74.12,GT-2,EC,705,7050,0.69,0.9,2.31,736.64,10,,GEN,1
8465,Lee Combined Cycle P,CAP_GEN_P58215,58215,14,13,NC,35.37,-78.08,1C,EC,888,7326,0.75,0.9,3.02,167.63,2.11,,GEN,1
8479,Marshalltown Generat,CAP_GEN_P58236,58236,3,8,IA,42.04,-92.87,CTG1,EC,423,7050,0.45,0.9,1.38,502.18,10,,GEN,3
8481,Marshalltown Generat,CAP_GEN_P58236,58236,3,8,IA,42.04,-92.87,STG1,EC,239.5,7050,0.45,0.9,0.78,322.28,10,,GEN,3
9356,Gila River Power Blo,CAP_GEN_P59338,59338,20,21,AZ,32.97,-112.69,CTG1,EC,570,7276,0.33,0.9,1.92,629.34,10,,GEN,5
604,Indian River Generat,CAP_GEN_P594,594,10,10,DE,38.58,-75.23,4,B7,410,15079,0.5,0.9,5,798.77,7.41,,GEN,1
9683,Oregon Clean Energy,CAP_GEN_P59764,59764,11,4,OH,41.66,-83.44,CTG11,EC,513,7050,0.67,0.9,1.68,581.46,10,,GEN,1
9685,Oregon Clean Energy,CAP_GEN_P59764,59764,11,4,OH,41.66,-83.44,STG10,EC,334.6,7050,0.67,0.9,1.09,419.09,10,,GEN,1
9694,Carroll County Energ,CAP_GEN_P59773,59773,11,4,OH,40.6,-81.05,CGT2,EC,714.6,7050,0.76,0.9,2.34,743.98,10,,GEN,1
9701,Gila River Power Blo,CAP_GEN_P59784,59784,20,21,AZ,32.97,-112.69,CTG5,EC,515,7486,0.58,0.9,1.79,583.17,10,,GEN,5
9727,Wolf Hollow II,CAP_GEN_P59812,59812,1,18,TX,32.33,-97.73,CGT4,EC,1115.4,7087,0.57,0.9,3.67,1022.9,10,,GEN,4
9809,Moxie Freedom Genera,CAP_GEN_P59906,59906,10,3,PA,41.11,-76.15,GEN1,EC,980,7050,0.81,0.9,3.21,934.06,10,,GEN,1
9814,Greensville County P,CAP_GEN_P59913,59913,13,12,VA,36.71,-77.65,CT01,EC,1585,7050,0.73,0.9,5.19,1298.4,10,,GEN,1
74,Whelan Energy Center,CAP_GEN_P60,60,19,8,NE,40.58,-98.31,1,C1,77,16847,0.5,0.9,1.04,323.95,11.85,,GEN,3
75,Whelan Energy Center,CAP_GEN_P60,60,19,8,NE,40.58,-98.31,2,B7,231.98,16243,0.5,0.9,3.04,615.67,8.79,,GEN,3
3928,James H Miller Jr,CAP_GEN_P6002,6002,15,17,AL,33.63,-87.06,1,C7,687.79,10057,0.75,0.9,5.59,1443.96,7.46,,GEN,2
3932,James H Miller Jr,CAP_GEN_P6002,6002,15,17,AL,33.63,-87.06,2,C7,692.69,10022,0.72,0.9,5.61,1436.24,7.48,,GEN,2
3936,James H Miller Jr,CAP_GEN_P6002,6002,15,17,AL,33.63,-87.06,3,C7,693,9876,0.78,0.9,5.53,1459.36,7.43,,GEN,2
3938,James H Miller Jr,CAP_GEN_P6002,6002,15,17,AL,33.63,-87.06,4,C7,704,9890,0.78,0.9,5.63,1433.39,7.49,,GEN,2
3940,Pleasants Power Stat,CAP_GEN_P6004,6004,11,11,WV,39.36,-81.29,1,H7,639,10644,0.51,0.9,5.5,7873.22,9999,,GEN,1
3941,Pleasants Power Stat,CAP_GEN_P6004,6004,11,11,WV,39.36,-81.29,2,H7,639,10476,0.62,0.9,5.41,1054.03,6.84,,GEN,1
10185,Lackawanna Energy Ce,CAP_GEN_P60357,60357,10,3,PA,41.47,-75.54,GEN1,EC,1362,7050,0.75,0.9,4.46,1173.26,10,,GEN,1
10194,Hummel Station LLC,CAP_GEN_P60368,60368,10,3,PA,40.83,-76.82,CTG1,EC,1085.6,7050,0.67,0.9,3.56,1003.76,10,,GEN,1
10200,Clean Energy Future-,CAP_GEN_P60376,60376,11,4,OH,41.14,-80.85,STG1,EC,857.5,7050,0.78,0.9,2.81,849.2,10,,GEN,1
4031,H L Spurlock,CAP_GEN_P6041,6041,11,16,KY,38.7,-83.81,1,H7,300,9937,0.75,0.9,2.41,677.32,8.29,,GEN,1
4033,H L Spurlock,CAP_GEN_P6041,6041,11,16,KY,38.7,-83.81,2,C7,510,9820,0.58,0.9,4.05,962.31,7.09,,GEN,1
4035,H L Spurlock,CAP_GEN_P6041,6041,11,16,KY,38.7,-83.81,3,B3,268,10148,0.8,0.9,2.19,620.98,8.63,,GEN,1
4036,H L Spurlock,CAP_GEN_P6041,6041,11,16,KY,38.7,-83.81,4,B3,268,10233,0.83,0.9,2.21,589.11,8.84,,GEN,1
4038,Manatee,CAP_GEN_P6042,6042,2,15,FL,27.6,-82.34,B,EC,1133,7050,0.66,0.9,3.71,151.11,1.97,,GEN,2
10240,Veyo Heat Recovery P,CAP_GEN_P60421,60421,25,20,UT,37.34,-113.76,WHR1,EC,8.4,8978,0.64,0.9,0.03,34,10,,GEN,5
4040,Martin,CAP_GEN_P6043,6043,2,15,FL,27.05,-80.56,3ST,EC,974,7154,0.53,0.9,3.24,298.68,2.09,,GEN,2
4041,Martin,CAP_GEN_P6043,6043,2,15,FL,27.05,-80.56,8,EC,1235,7154,0.53,0.9,4.11,812.07,2.09,,GEN,2
10281,Tenaska Westmoreland,CAP_GEN_P60464,60464,11,3,PA,40.17,-79.69,CTG1,EC,946.99,7050,0.69,0.9,3.1,911.64,10,,GEN,1
4059,Wansley,CAP_GEN_P6052,6052,15,14,GA,33.41,-85.03,1,C7,871.99,10456,0.5,0.9,7.37,1549.62,7.24,,GEN,1
4067,Wansley,CAP_GEN_P6052,6052,15,14,GA,33.41,-85.03,2,C7,871.99,10370,0.5,0.9,7.31,1604.43,7.13,,GEN,1
10395,CPV Fairview Energy,CAP_GEN_P60589,60589,10,3,PA,40.41,-78.85,GEN2,EC,1078.3,7050,0.78,0.9,3.53,999.04,10,,GEN,1
4085,R D Morrow,CAP_GEN_P6061,6061,6,17,MS,31.21,-89.39,MOR1,EC,514,6431,0.87,0.9,1.53,582.31,10,,GEN,2
10416,St. Mary Clean Energ,CAP_GEN_P60610,60610,6,18,LA,29.68,-91.47,1,EC,41.3,18084,0,0.9,0.34,122.08,10,,GEN,2
4177,Stony Brook,CAP_GEN_P6081,6081,7,1,MA,42.19,-72.51,CT1,EC,69.69,9687,0.01,0.9,0.31,78.71,7.35,,GEN,1
4179,Stony Brook,CAP_GEN_P6081,6081,7,1,MA,42.19,-72.51,CT2,EC,69.69,9687,0.01,0.9,0.31,78.71,7.35,,GEN,1
